uid,city,state,country,iso3,country_code,region,sub_region,latitude,longitude,accuracy,status,plant_type,production_type,confdnc,capacity,capacity_source,year,owner_permid,owner_name,owner_source,parent_permid,parent_name,ownership_stake,parent_lei,parent_holding_status,parent_ticker,parent_exchange,parent_permid_2,parent_name_2,ownership_stake_2,parent_lei_2,parent_holding_status_2,parent_ticker_2,parent_exchange_2,sourcing,raw_mtrl,clinker
GACTAFG0001,Pol-e Khomri,Baghlan,Afghanistan,AFG,4,Asia,Southern Asia,35.9658,68.686338,Exact,Operating,Grinding,n/a,0.77450037,0.36,company reports,n/a,n/a,n/a,n/a,n/a,n/a,n/a,n/a,n/a,n/a,n/a,n/a,n/a,n/a,n/a,n/a,n/a,n/a,local,unknown,n/a
GACTAFG0002,Injil,Herat,Afghanistan,AFG,4,Asia,Southern Asia,34.322144,61.953503,Exact,Under Construction,Integrated,Dry,1,1,news,n/a,n/a,n/a,n/a,n/a,n/a,n/a,n/a,n/a,n/a,n/a,n/a,n/a,n/a,n/a,n/a,n/a,n/a,local,"limestone, gypsum",n/a
GACTAGO0001,Luanda,Luanda,Angola,AGO,24,Africa,Sub-Saharan Africa,-8.766173,13.316051,Exact,Operating,Integrated,Dry,0.52481574,1.2,company reports,n/a,4296811479,Nova Cimangola,http://www.cimangola.com/?page_id=1168&lang=en,4296811479,Nova Cimangola,n/a,n/a,Private,n/a,n/a,n/a,n/a,n/a,n/a,n/a,n/a,n/a,local,limestone,n/a
GACTAGO0002,Cacuaco,Luanda,Angola,AGO,24,Africa,Sub-Saharan Africa,-8.796392,13.42678,Exact,Operating,Integrated,Dry,0.52481574,1.8,news,2017,4296811479,Nova Cimangola,http://www.cimangola.com/?page_id=1168&lang=en,4296811479,Nova Cimangola,n/a,n/a,Private,n/a,n/a,n/a,n/a,n/a,n/a,n/a,n/a,n/a,local,limestone,n/a
GACTAGO0003,Lobito,Benguela,Angola,AGO,24,Africa,Sub-Saharan Africa,-12.342644,13.581766,Exact,Operating,Integrated,Dry,0.9999998,0.35,company reports,n/a,5035943898,Secil Angola SARL,http://www.secil-group.com/a-secil/a-secil-no-mundo/?lang=en#secil_no_mundo_tunisia_en,4295886745,Secil Companhia Geral de Cal e Cimento SA,n/a,5493002X2CCY60HWCU94,Private,n/a,n/a,n/a,n/a,n/a,n/a,n/a,n/a,n/a,hybrid,unknown,clinker
GACTAGO0004,Sumbe,Kwanza-Sul,Angola,AGO,24,Africa,Sub-Saharan Africa,-11.185243,14.030804,Exact,Operating,Integrated,Dry,0.9999998,1.4,company reports,n/a,n/a,n/a,n/a,n/a,n/a,n/a,n/a,n/a,n/a,n/a,n/a,n/a,n/a,n/a,n/a,n/a,n/a,hybrid,unknown,clinker
GACTAGO0005,Ícolo e Bengo,Bengo,Angola,AGO,24,Africa,Sub-Saharan Africa,-9.101295,13.567408,Exact,Operating,Integrated,Dry,0.52481574,4,company reports,n/a,n/a,n/a,n/a,n/a,n/a,n/a,n/a,n/a,n/a,n/a,n/a,n/a,n/a,n/a,n/a,n/a,n/a,local,limestone,n/a
GACTAGO0006,Benguela,Benguela,Angola,AGO,24,Africa,Sub-Saharan Africa,-12.537825,13.496729,Exact,Operating,Integrated,Dry,1,0.7,company reports,n/a,n/a,n/a,n/a,n/a,n/a,n/a,n/a,n/a,n/a,n/a,n/a,n/a,n/a,n/a,n/a,n/a,n/a,local,unknown,n/a
GACTALB0001,Rrethi i Lezhës,Qarku i Lezhës,Albania,ALB,8,Europe,Southern Europe,41.83677,19.63345,Exact,Operating,Grinding,n/a,0.6802924,0.5,company reports,2010,n/a,Colacem Albania Shpk,https://www.colacem.com/al/sq/ku_dhe_si,4296427455,Colacem SpA,n/a,81560006C18832ACD262,Private,n/a,n/a,n/a,n/a,n/a,n/a,n/a,n/a,n/a,hybrid,unknown,clinker
GACTALB0002,Rrethi i Krujës,Qarku i Durrësit,Albania,ALB,8,Europe,Southern Europe,41.503079,19.743606,Exact,Operating,Grinding,n/a,0.7140056,1.33,company reports,n/a,4296766190,Kushe Kruje Cement Factory,http://www.seament.com/contactus.php,5041753428,Seament Holding Sal,n/a,n/a,Private,n/a,n/a,n/a,n/a,n/a,n/a,n/a,n/a,n/a,hybrid,unknown,clinker
GACTALB0003,Rrethi i Krujës,Qarku i Durrësit,Albania,ALB,8,Europe,Southern Europe,41.549091,19.725338,Exact,Operating,Grinding,n/a,0.7140056,1.4,company reports,2010,5036173163,Antea Cement ShA,http://www.anteacement.com/_home/antea-cement/,5066579091,Titan Cement International SA,n/a,213800H2CDP9I374WH83,Public,TITC,BRU,n/a,n/a,n/a,n/a,n/a,n/a,n/a,hybrid,unknown,clinker
GACTALB0004,Rrethi i Elbasanit,Qarku i Elbasanit,Albania,ALB,8,Europe,Southern Europe,41.120103,20.045136,Exact,Operating,Grinding,n/a,1,0.3,company reports,n/a,n/a,n/a,n/a,n/a,n/a,n/a,n/a,n/a,n/a,n/a,n/a,n/a,n/a,n/a,n/a,n/a,n/a,hybrid,unknown,clinker
GACTARE0001,Eastern Region,Abu Dhabi,United Arab Emirates,ARE,784,Asia,Western Asia,24.003398,55.438602,Exact,Operating,Integrated,Wet,0.9999999,3.6,company website,n/a,5074852997,Al Ain Cement Factory,https://www.emiratescement.ae/en/contactus.aspx,4298008642,Arkan Building Materials Company PJSC,n/a,n/a,Public,ARKAN,ABD,n/a,n/a,n/a,n/a,n/a,n/a,n/a,local,"limestone, clay",n/a
GACTARE0002,Al Ain,Abu Dhabi,United Arab Emirates,ARE,784,Asia,Western Asia,24.137441,55.733956,Exact,Operating,Integrated,Wet,0.9999999,5,news,1994,5035440316,Emirates Cement Factory,https://www.emiratescement.ae/en/contactus.aspx,4298008642,Arkan Building Materials Company PJSC,n/a,n/a,Public,ARKAN,ABD,n/a,n/a,n/a,n/a,n/a,n/a,n/a,local,"limestone, clay",n/a
GACTARE0003,Dubai,Dubai,United Arab Emirates,ARE,784,Asia,Western Asia,24.998572,55.134171,Exact,Operating,Integrated,Dry,0.9759848,3,news,n/a,5035580861,CEMEX Falcon LLC,https://www.cemex.ae/locations,5000057902,CEMEX SAB de CV,n/a,549300RIG2CXWN6IV731,Public,CEMEXCPO,MEX,n/a,n/a,n/a,n/a,n/a,n/a,n/a,import,unknown,n/a
GACTARE0004,Ghalilah,Ras al Khaimah,United Arab Emirates,ARE,784,Asia,Western Asia,25.972745,56.070834,Exact,Operating,Integrated,Dry,1,3.8,company website,1982,4295893472,Gulf Cement Co PSC,https://gulfcement.ae/en/our-history/,4295893472,Gulf Cement Co PSC,n/a,n/a,Public,GCEM,ABD,n/a,n/a,n/a,n/a,n/a,n/a,n/a,local,unknown,n/a
GACTARE0005,Dubai,Dubai,United Arab Emirates,ARE,784,Asia,Western Asia,25.00427,55.12941,Exact,Operating,Integrated,Dry,0.9759848,0.84,company website,1978,5041755029,Jebel Ali Cement Factory PSC,https://www.jacement.com/,5041755029,Jebel Ali Cement Factory PSC,n/a,n/a,Private,n/a,n/a,n/a,n/a,n/a,n/a,n/a,n/a,n/a,import,unknown,n/a
GACTARE0006,Ras Al-Khaimah,Ras al Khaimah,United Arab Emirates,ARE,784,Asia,Western Asia,25.548753,55.986541,Exact,Operating,Integrated,Dry,1,1,company website,2014,5036198541,JK Cement Works Fujairah FZC,https://www.jkcementuae.com/company/,5036198541,JK Cement Works Fujairah FZC,n/a,213800ULYY4CIPVWPT54,Private,n/a,n/a,n/a,n/a,n/a,n/a,n/a,n/a,n/a,local,unknown,n/a
GACTARE0007,Dibba Al Fujairah,Fujairah,United Arab Emirates,ARE,784,Asia,Western Asia,25.552944,56.226827,Exact,Operating,Integrated,Wet,1,3.2,company website,1996,4296646466,Lafarge Emirates Cement LLC,https://www.lafarge.ae/lafarge-uae-a-member-lafargeholcim,4295890620,LafargeHolcim Ltd,n/a,529900EHPFPYHV6IQO98,Public,LHN,SWX,n/a,n/a,n/a,n/a,n/a,n/a,n/a,local,unknown,n/a
GACTARE0008,Ras Al-Khaimah,Ras al Khaimah,United Arab Emirates,ARE,784,Asia,Western Asia,25.558872,55.985251,Exact,Operating,Integrated,Dry,1,2.5,news,n/a,4296646466,Lafarge Emirates Cement LLC,https://www.lafarge.ae/1-About_us,4295890620,LafargeHolcim Ltd,n/a,529900EHPFPYHV6IQO98,Public,LHN,SWX,n/a,n/a,n/a,n/a,n/a,n/a,n/a,local,unknown,n/a
GACTARE0009,Abu Dhabi,Abu Dhabi,United Arab Emirates,ARE,784,Asia,Western Asia,24.315716,54.495748,Exact,Operating,Integrated,Wet,0.81194043,2,news,n/a,4295893487,National Cement Co PSC,https://www.lafargeholcim.com/directory?page=4,4295890620,LafargeHolcim Ltd,n/a,529900EHPFPYHV6IQO98,Public,LHN,SWX,n/a,n/a,n/a,n/a,n/a,n/a,n/a,local,unknown,n/a
GACTARE0010,Eastern Region,Abu Dhabi,United Arab Emirates,ARE,784,Asia,Western Asia,24.040157,55.593386,Exact,Operating,Integrated,Wet,0.9999999,5,news,n/a,5050910802,Nael Cement Products Factory,https://www.ncpuae.com/#,5050910802,Nael Cement Products Factory,n/a,n/a,Private,n/a,n/a,n/a,n/a,n/a,n/a,n/a,n/a,n/a,local,"limestone, clay",n/a
GACTARE0011,Dubai,Dubai,United Arab Emirates,ARE,784,Asia,Western Asia,25.157152,55.242025,Exact,Operating,Integrated,Dry,0.9759848,1.5,company website,n/a,4295893487,National Cement Co PSC,http://www.nationalcement.ae/contact.htm,4295893487,National Cement Co PSC,n/a,254900IY1MRIP8LR6U38,Public,NCC,DBX,n/a,n/a,n/a,n/a,n/a,n/a,n/a,import,unknown,n/a
GACTARE0012,Adhen Village,Ras al Khaimah,United Arab Emirates,ARE,784,Asia,Western Asia,25.386639,55.968218,Exact,Operating,Integrated,Wet,1,1.2,company reports,2006,5001427098,Pioneer Cement Industries LLC,https://pioneercements.ae/about-us/company-overview,5001427098,Pioneer Cement Industries LLC,n/a,n/a,Private,n/a,n/a,n/a,n/a,n/a,n/a,n/a,n/a,n/a,local,unknown,n/a
GACTARE0013,Ghalilah,Ras al Khaimah,United Arab Emirates,ARE,784,Asia,Western Asia,25.975192,56.068896,Exact,Operating,Integrated,Dry,1,1,company website,n/a,4298061671,Ras Al Khaimah Cement Company PSC,http://rakcc.ae/en/location.htm,4298061671,Ras Al Khaimah Cement Company PSC,n/a,n/a,Public,RAKCC,ABD,n/a,n/a,n/a,n/a,n/a,n/a,n/a,local,unknown,n/a
GACTARE0014,Ghalilah,Ras al Khaimah,United Arab Emirates,ARE,784,Asia,Western Asia,25.964045,56.069847,Exact,Operating,Integrated,Dry,1,0.9,company website,1978,5000050939,Ras Al Khaimah for White Cement and Construction Materials Co PSC,http://www.rakwhitecement.ae/about-us/,5000050939,Ras Al Khaimah for White Cement and Construction Materials Co PSC,n/a,n/a,Public,RAKWCT,ABD,n/a,n/a,n/a,n/a,n/a,n/a,n/a,local,unknown,n/a
GACTARE0015,Al Sajaa Industrial Area,Sharjah,United Arab Emirates,ARE,784,Asia,Western Asia,25.296089,55.617005,Exact,Operating,Integrated,Dry,0.9759848,4.27,company website,1977,4295893462,Sharjah Cement and Industrial Development Company PSC,https://sharjahcements.com/en/about-us/,4295893462,Sharjah Cement and Industrial Development Company PSC,n/a,549300KCL0CHLNC3TN08,Public,SCIDC,ABD,n/a,n/a,n/a,n/a,n/a,n/a,n/a,import,unknown,n/a
GACTARE0016,Ghalilah,Ras al Khaimah,United Arab Emirates,ARE,784,Asia,Western Asia,25.967124,56.064911,Exact,Operating,Integrated,Dry,1,4.8,company website,1975,4298008640,Union Cement Company PJSC,http://www.uccrak.com/index.aspxMenuID34CatID10mnuCat.htm,4295874015,Shree Cement Ltd,n/a,335800W6FNBDUZ89L830,Public,SHREECEM,NSI,n/a,n/a,n/a,n/a,n/a,n/a,n/a,local,unknown,n/a
GACTARE0017,Abu Dhabi,Abu Dhabi,United Arab Emirates,ARE,784,Asia,Western Asia,24.291296,54.460784,Exact,Operating,Integrated,Dry,0.81194043,1.2,company website,2008,n/a,Teba Cement Factory,http://tebacement.com/locationmap.htm,n/a,Teba Cement Factory,n/a,n/a,Private,n/a,n/a,n/a,n/a,n/a,n/a,n/a,n/a,n/a,local,unknown,n/a
GACTARE0018,Ras Al-Khaimah,Ras al Khaimah,United Arab Emirates,ARE,784,Asia,Western Asia,25.556404,55.977484,Exact,Operating,Integrated,Dry,1,3.5,news,1977,4297577683,Star Cement Co LLC,http://www.starcement.ae/index.php/contact-us,4295873970,UltraTech Cement Ltd,n/a,335800PC9O9B4BQHG814,Public,ULTRACEMCO,NSI,n/a,n/a,n/a,n/a,n/a,n/a,n/a,local,unknown,n/a
GACTARE0019,Dubai,Dubai,United Arab Emirates,ARE,784,Asia,Western Asia,25.002524,55.133951,Exact,Operating,Integrated,Dry,0.9759848,2.8,news,1996,5000056802,Binani Cement Factory LLC,http://binaniindustries.com/our-business-areas/cement/,4295873970,UltraTech Cement Ltd,n/a,335800PC9O9B4BQHG814,Public,ULTRACEMCO,NSI,n/a,n/a,n/a,n/a,n/a,n/a,n/a,import,unknown,n/a
GACTARE0020,Ajman,Ajman,United Arab Emirates,ARE,784,Asia,Western Asia,25.43386,55.552188,Exact,Operating,Integrated,Wet,0.9759848,3.2,news,1980,4297577683,Star Cement Co LLC,http://www.starcement.ae/index.php/contact-us,4295873970,UltraTech Cement Ltd,n/a,335800PC9O9B4BQHG814,Public,ULTRACEMCO,NSI,n/a,n/a,n/a,n/a,n/a,n/a,n/a,import,unknown,n/a
GACTARE0021,Abu Dhabi,Abu Dhabi,United Arab Emirates,ARE,784,Asia,Western Asia,24.327372,54.500322,Exact,Operating,Integrated,Dry,0.81194043,4.5,news,2003,4297577683,Star Cement Co LLC,http://www.starcement.ae/index.php/contact-us,4295873970,UltraTech Cement Ltd,n/a,335800PC9O9B4BQHG814,Public,ULTRACEMCO,NSI,n/a,n/a,n/a,n/a,n/a,n/a,n/a,local,unknown,n/a
GACTARG0001,Olavarría,Provincia de Buenos Aires,Argentina,ARG,32,Americas,Latin America and the Caribbean,-36.982432,-60.243942,Exact,Operating,Integrated,Wet,0.80518496,2.4,company website,1937,4295856033,Cementos Avellaneda SA,http://www.cavellaneda.com.ar/divisiones.php?sec=divisiones,4295856033,Cementos Avellaneda SA,n/a,n/a,Private,n/a,n/a,n/a,n/a,n/a,n/a,n/a,n/a,n/a,local,"limestone, clay",n/a
GACTARG0002,Belgrano,San Luis,Argentina,ARG,32,Americas,Latin America and the Caribbean,-32.862443,-66.850896,Exact,Operating,Integrated,Wet,0.86302865,0.35,company website,1975,4295856033,Cementos Avellaneda SA,http://www.cavellaneda.com.ar/divisiones.php?sec=divisiones,4295856033,Cementos Avellaneda SA,n/a,n/a,Private,n/a,n/a,n/a,n/a,n/a,n/a,n/a,n/a,n/a,local,unknown,n/a
GACTARG0003,Villa Cacique,Provincia de Buenos Aires,Argentina,ARG,32,Americas,Latin America and the Caribbean,-37.683682,-59.388818,Exact,Operating,Integrated,Wet,0.80518496,1.2,news,1950,4296543187,Loma Negra Compania Industrial Argentina SA,http://www.lomanegra.com/unidades/cemento/,5035421084,InterCement Participacoes SA,n/a,n/a,Private,n/a,n/a,n/a,n/a,n/a,n/a,n/a,n/a,n/a,local,"limestone, clay",n/a
GACTARG0004,El Alto Department,Catamarca Province,Argentina,ARG,32,Americas,Latin America and the Caribbean,-28.467957,-65.227789,Exact,Operating,Integrated,Dry,0.7840184,1.5,news,1980,4296543187,Loma Negra Compania Industrial Argentina SA,http://www.lomanegra.com/unidades/cemento/,5035421084,InterCement Participacoes SA,n/a,n/a,Private,n/a,n/a,n/a,n/a,n/a,n/a,n/a,n/a,n/a,local,"limestone, clay",n/a
GACTARG0005,Olavarría Partido,Buenos Aires Province,Argentina,ARG,32,Americas,Latin America and the Caribbean,-37.038897,-60.294838,Exact,Operating,Integrated,Dry,0.80518496,0.3,news,2001,4296543187,Loma Negra Compania Industrial Argentina SA,http://www.lomanegra.com/unidades/cemento/,5035421084,InterCement Participacoes SA,n/a,n/a,Private,n/a,n/a,n/a,n/a,n/a,n/a,n/a,n/a,n/a,local,"limestone, clay",n/a
GACTARG0006,Villa Fortabat,Provincia de Buenos Aires,Argentina,ARG,32,Americas,Latin America and the Caribbean,-36.99286,-60.276544,Exact,Operating,Integrated,Dry,0.80518496,0.6,news,1930,4296543187,Loma Negra Compania Industrial Argentina SA,http://www.lomanegra.com/unidades/cemento/,5035421084,InterCement Participacoes SA,n/a,n/a,Private,n/a,n/a,n/a,n/a,n/a,n/a,n/a,n/a,n/a,local,"limestone, clay",n/a
GACTARG0007,Rivadavia,San Juan,Argentina,ARG,32,Americas,Latin America and the Caribbean,-31.549228,-68.675812,Exact,Operating,Integrated,Dry,0.86302865,0.7,news,1960,4296543187,Loma Negra Compania Industrial Argentina SA,http://www.lomanegra.com/unidades/cemento/,5035421084,InterCement Participacoes SA,n/a,n/a,Private,n/a,n/a,n/a,n/a,n/a,n/a,n/a,n/a,n/a,local,unknown,n/a
GACTARG0008,Sierras Bayas,Provincia de Buenos Aires,Argentina,ARG,32,Americas,Latin America and the Caribbean,-36.938645,-60.165115,Exact,Operating,Integrated,Dry,0.80518496,0.5,news,n/a,4296543187,Loma Negra Compania Industrial Argentina SA,http://www.lomanegra.com/unidades/cemento/,5035421084,InterCement Participacoes SA,n/a,n/a,Private,n/a,n/a,n/a,n/a,n/a,n/a,n/a,n/a,n/a,local,"limestone, clay",n/a
GACTARG0009,Zapala,Neuquén,Argentina,ARG,32,Americas,Latin America and the Caribbean,-38.896776,-70.035152,Exact,Operating,Grinding,n/a,1,1.5,news,1970,4296543187,Loma Negra Compania Industrial Argentina SA,http://www.lomanegra.com/unidades/cemento/,5035421084,InterCement Participacoes SA,n/a,n/a,Private,n/a,n/a,n/a,n/a,n/a,n/a,n/a,n/a,n/a,local,unknown,n/a
GACTARG0010,Ramallo,Provincia de Buenos Aires,Argentina,ARG,32,Americas,Latin America and the Caribbean,-33.387911,-60.133089,Exact,Operating,Integrated,Dry,0.7562808,2.5,news,1999,4296543187,Loma Negra Compania Industrial Argentina SA,http://www.lomanegra.com/unidades/cemento/,5035421084,InterCement Participacoes SA,n/a,n/a,Private,n/a,n/a,n/a,n/a,n/a,n/a,n/a,n/a,n/a,local,unknown,n/a
GACTARG0011,Las Heras,Mendoza,Argentina,ARG,32,Americas,Latin America and the Caribbean,-32.739253,-68.845197,Exact,Operating,Integrated,Dry,0.86302865,0.9,news,1935,4295856026,Holcim Argentina SA,https://www.holcim.com.ar/nuestra-empresa/presencia-nacional,4295890620,LafargeHolcim Ltd,n/a,529900EHPFPYHV6IQO98,Public,LHN,SWX,n/a,n/a,n/a,n/a,n/a,n/a,n/a,local,unknown,n/a
GACTARG0012,Santa María,Córdoba,Argentina,ARG,32,Americas,Latin America and the Caribbean,-31.482087,-64.352965,Exact,Operating,Integrated,Dry,0.7562808,0.6,news,1930,4295856026,Holcim Argentina SA,https://www.holcim.com.ar/nuestra-empresa/presencia-nacional,4295890620,LafargeHolcim Ltd,n/a,529900EHPFPYHV6IQO98,Public,LHN,SWX,n/a,n/a,n/a,n/a,n/a,n/a,n/a,local,unknown,n/a
GACTARG0013,El Carmen,Jujuy,Argentina,ARG,32,Americas,Latin America and the Caribbean,-24.490598,-64.957567,Exact,Operating,Integrated,Dry,0.78030777,0.5,news,1982,4295856026,Holcim Argentina SA,https://www.holcim.com.ar/nuestra-empresa/presencia-nacional,4295890620,LafargeHolcim Ltd,n/a,529900EHPFPYHV6IQO98,Public,LHN,SWX,n/a,n/a,n/a,n/a,n/a,n/a,n/a,hybrid,sand,clinker
GACTARG0014,Deseado,Santa Cruz,Argentina,ARG,32,Americas,Latin America and the Caribbean,-46.789492,-67.927543,Exact,Operating,Grinding,n/a,n/a,2,news,2008,4295856026,Holcim Argentina SA,https://www.afcp.org.ar/evoluciondelsector,4295890620,LafargeHolcim Ltd,n/a,529900EHPFPYHV6IQO98,Public,LHN,SWX,n/a,n/a,n/a,n/a,n/a,n/a,n/a,n/a,n/a,n/a
GACTARG0015,Yoccina,Córdoba,Argentina,ARG,32,Americas,Latin America and the Caribbean,-31.444889,-64.37047,Exact,Operating,Integrated,Dry,0.7562808,1.5,news,1963,4295856026,Holcim Argentina SA,https://www.holcim.com.ar/nuestra-empresa/presencia-nacional,4295890620,LafargeHolcim Ltd,n/a,529900EHPFPYHV6IQO98,Public,LHN,SWX,n/a,n/a,n/a,n/a,n/a,n/a,n/a,local,unknown,n/a
GACTARG0016,Campana Partido,Provincia de Buenos Aires,Argentina,ARG,32,Americas,Latin America and the Caribbean,-34.151782,-59.016309,Exact,Operating,Integrated,Dry,0.6987871,0.9,news,2000,4295856026,Holcim Argentina SA,https://www.holcim.com.ar/nuestra-empresa/presencia-nacional,4295890620,LafargeHolcim Ltd,n/a,529900EHPFPYHV6IQO98,Public,LHN,SWX,n/a,n/a,n/a,n/a,n/a,n/a,n/a,local,sand,n/a
GACTARG0017,Comodoro Rivadavia,Chubut,Argentina,ARG,32,Americas,Latin America and the Caribbean,-45.803647,-67.422563,Exact,Operating,Integrated,Dry,n/a,1.5,news,1950,5000066942,Petroquimica Comodoro Rivadavia SA,http://www.pcrsa.com.ar/,5000066942,Petroquimica Comodoro Rivadavia SA,n/a,254900LWUHABVX9HG715,Private,n/a,n/a,n/a,n/a,n/a,n/a,n/a,n/a,n/a,n/a,n/a,n/a
GACTARG0018,Minas,Departamento de Lavalleja,Argentina,ARG,32,Americas,Latin America and the Caribbean,-34.378987,-55.280467,Exact,Operating,Grinding,n/a,0.99999976,1.5,news,n/a,n/a,n/a,n/a,n/a,n/a,n/a,n/a,n/a,n/a,n/a,n/a,n/a,n/a,n/a,n/a,n/a,n/a,local,unknown,n/a
GACTARM0001,Hrazdan,Kotayk Province,Armenia,ARM,51,Asia,Western Asia,40.569855,44.748048,Exact,Operating,Integrated,Dry,1,1.2,company reports,1970,n/a,Khachaturov Group,https://www.khachaturovgroup.am/about/,n/a,Khachaturov Group,n/a,n/a,Private,n/a,n/a,n/a,n/a,n/a,n/a,n/a,n/a,n/a,local,limestone,n/a
GACTARM0002,Ararat,Ararat Province,Armenia,ARM,51,Asia,Western Asia,39.855755,44.730945,Exact,Operating,Grinding,n/a,1.0000002,1.2,company reports,1933,4296860538,Araratcement Ojsc(Armenia),https://www.araratcement.am/history,n/a,Multi Group Concern,n/a,n/a,Private,n/a,n/a,n/a,n/a,n/a,n/a,n/a,n/a,n/a,local,"limestone, clay",n/a
GACTAUS0001,Angaston,South Australia,Australia,AUS,36,Oceania,Australia and New Zealand,-34.502107,139.028952,Exact,Operating,Integrated,Dry,0.7448026,0.25,company reports,1952,5040950706,Adelaide Brighton Cement Ltd,http://www.adelaidebrighton.com.au/customer-info/plant-locations,4295857193,Adelaide Brighton Ltd,n/a,529900XNYGV6JJJ38J47,Public,ABC,ASX,n/a,n/a,n/a,n/a,n/a,n/a,n/a,local,unknown,n/a
GACTAUS0002,Peterhead,South Australia,Australia,AUS,36,Oceania,Australia and New Zealand,-34.831591,138.502971,Exact,Operating,Integrated,Dry,0.7448026,1.2,company reports,n/a,5040950706,Adelaide Brighton Cement Ltd,http://www.adelaidebrighton.com.au/customer-info/plant-locations,4295857193,Adelaide Brighton Ltd,n/a,529900XNYGV6JJJ38J47,Public,ABC,ASX,n/a,n/a,n/a,n/a,n/a,n/a,n/a,local,unknown,n/a
GACTAUS0003,Munster,Western Australia,Australia,AUS,36,Oceania,Australia and New Zealand,-32.147573,115.799112,Exact,Operating,Integrated,Dry,0.7448026,0.7,company reports,n/a,4297011466,Cockburn Cement Ltd,http://cockburncement.com.au/about-us/,4295857193,Adelaide Brighton Ltd,n/a,529900XNYGV6JJJ38J47,Public,ABC,ASX,n/a,n/a,n/a,n/a,n/a,n/a,n/a,local,unknown,n/a
GACTAUS0004,Port Denison,Western Australia,Australia,AUS,36,Oceania,Australia and New Zealand,-29.311239,114.944342,Exact,Operating,Grinding,n/a,0.6262496,0.5,news,n/a,4297011466,Cockburn Cement Ltd,http://cockburncement.com.au/about-us/,4295857193,Adelaide Brighton Ltd,n/a,529900XNYGV6JJJ38J47,Public,ABC,ASX,n/a,n/a,n/a,n/a,n/a,n/a,n/a,local,unknown,n/a
GACTAUS0005,Kwinana Beach,Western Australia,Australia,AUS,36,Oceania,Australia and New Zealand,-32.211016,115.773712,Exact,Operating,Grinding,n/a,0.7448026,2.4,news,n/a,4297011466,Cockburn Cement Ltd,http://cockburncement.com.au/about-us/,4295857193,Adelaide Brighton Ltd,n/a,529900XNYGV6JJJ38J47,Public,ABC,ASX,n/a,n/a,n/a,n/a,n/a,n/a,n/a,local,unknown,n/a
GACTAUS0006,Port Kembla,New South Wales,Australia,AUS,36,Oceania,Australia and New Zealand,-34.476949,150.91107,Exact,Operating,Integrated,Dry,0.82281077,1.7,news,n/a,5000444682,Morgan Cement International Pty Ltd,https://adbri.com.au/contact#locations-contacts,4295857193,Adelaide Brighton Ltd,n/a,529900XNYGV6JJJ38J47,Public,ABC,ASX,n/a,n/a,n/a,n/a,n/a,n/a,n/a,local,unknown,n/a
GACTAUS0007,East Arm,Northern Territory,Australia,AUS,36,Oceania,Australia and New Zealand,-12.481157,130.897256,Exact,Operating,Integrated,Dry,0.6262496,1.7,news,n/a,5036865970,Northern Cement Ltd,https://adbri.com.au/contact#locations-contacts,4295857193,Adelaide Brighton Ltd,n/a,529900XNYGV6JJJ38J47,Public,ABC,ASX,n/a,n/a,n/a,n/a,n/a,n/a,n/a,local,unknown,n/a
GACTAUS0008,Parkeston,Western Australia,Australia,AUS,36,Oceania,Australia and New Zealand,-30.724275,121.497603,Exact,Operating,Grinding,n/a,0.7448026,1.4,news,n/a,4297011466,Cockburn Cement Ltd,http://cockburncement.com.au/about-us/,4295857193,Adelaide Brighton Ltd,n/a,529900XNYGV6JJJ38J47,Public,ABC,ASX,n/a,n/a,n/a,n/a,n/a,n/a,n/a,local,unknown,n/a
GACTAUS0009,Mataranka,Northern Territory,Australia,AUS,36,Oceania,Australia and New Zealand,-14.979541,133.082037,Exact,Operating,Integrated,Dry,0.6262496,2.4,news,n/a,5036865970,Northern Cement Ltd,https://adbri.com.au/contact#locations-contacts,4295857193,Adelaide Brighton Ltd,n/a,529900XNYGV6JJJ38J47,Public,ABC,ASX,n/a,n/a,n/a,n/a,n/a,n/a,n/a,local,unknown,n/a
GACTAUS0010,Spring Hill,New South Wales,Australia,AUS,36,Oceania,Australia and New Zealand,-34.45638,150.867508,Exact,Operating,Grinding,n/a,0.82281077,1.2,company website,n/a,n/a,Australian Steel Mill Services Pty Ltd,http://www.asms.com.au/,n/a,Australian Steel Mill Services Pty Ltd,n/a,n/a,Private,n/a,n/a,n/a,n/a,n/a,n/a,n/a,n/a,n/a,local,unknown,n/a
GACTAUS0011,New Berrima,New South Wales,Australia,AUS,36,Oceania,Australia and New Zealand,-34.509613,150.33654,Exact,Operating,Integrated,Dry,0.6874943,1.2,company reports,1929,5000459547,Boral Cement Ltd,https://www.boral.com.au/locations,4295857155,Boral Ltd,n/a,549300KLCHOLFEMSPR08,Public,BLD,ASX,n/a,n/a,n/a,n/a,n/a,n/a,n/a,hybrid,unknown,clinker
GACTAUS0012,Maldon,New South Wales,Australia,AUS,36,Oceania,Australia and New Zealand,-34.195649,150.634007,Exact,Operating,Grinding,n/a,0.82281077,1.3,news,n/a,5000459547,Boral Cement Ltd,https://www.boral.com.au/locations,4295857155,Boral Ltd,n/a,549300KLCHOLFEMSPR08,Public,BLD,ASX,n/a,n/a,n/a,n/a,n/a,n/a,n/a,local,unknown,n/a
GACTAUS0013,Waurn Ponds,Victoria,Australia,AUS,36,Oceania,Australia and New Zealand,-38.224925,144.268569,Exact,Operating,Integrated,Dry,1.0000001,0.25,company reports,1970,5000459547,Boral Cement Ltd,https://www.boral.com.au/locations,4295857155,Boral Ltd,n/a,549300KLCHOLFEMSPR08,Public,BLD,ASX,n/a,n/a,n/a,n/a,n/a,n/a,n/a,local,limestone,n/a
GACTAUS0014,Yarwun,Queensland,Australia,AUS,36,Oceania,Australia and New Zealand,-23.792892,151.15498,Exact,Operating,Integrated,Dry,0.7805775,1.7,company reports,n/a,4296017436,Cement Australia Holdings Pty Ltd,https://www.cementaustralia.com.au/our-locations,4296017436,Cement Australia Holdings Pty Ltd,n/a,54930028JWJI02UJM203,Private,n/a,n/a,n/a,n/a,n/a,n/a,n/a,n/a,n/a,local,unknown,n/a
GACTAUS0015,Railton,Tasmania,Australia,AUS,36,Oceania,Australia and New Zealand,-41.331127,146.416556,Exact,Operating,Integrated,Dry,0.7399333,1,company reports,1923,4296017436,Cement Australia Holdings Pty Ltd,https://www.cementaustralia.com.au/our-locations,4296017436,Cement Australia Holdings Pty Ltd,n/a,54930028JWJI02UJM203,Private,n/a,n/a,n/a,n/a,n/a,n/a,n/a,n/a,n/a,local,unknown,n/a
GACTAUS0016,Naval Base,Western Australia,Australia,AUS,36,Oceania,Australia and New Zealand,-32.204599,115.778059,Exact,Operating,Grinding,n/a,0.7448026,0.5,news,n/a,4296017436,Cement Australia Holdings Pty Ltd,https://www.cementaustralia.com.au/our-locations,4296017436,Cement Australia Holdings Pty Ltd,n/a,54930028JWJI02UJM203,Private,n/a,n/a,n/a,n/a,n/a,n/a,n/a,n/a,n/a,local,unknown,n/a
GACTAUS0017,Pinkenba,Queensland,Australia,AUS,36,Oceania,Australia and New Zealand,-27.41312,153.141054,Exact,Operating,Integrated,Dry,0.9028691,1.2,company reports,n/a,4296017436,Cement Australia Holdings Pty Ltd,https://www.cementaustralia.com.au/our-locations,4296017436,Cement Australia Holdings Pty Ltd,n/a,54930028JWJI02UJM203,Private,n/a,n/a,n/a,n/a,n/a,n/a,n/a,n/a,n/a,local,unknown,n/a
GACTAUS0018,Port Kembla,New South Wales,Australia,AUS,36,Oceania,Australia and New Zealand,-34.470535,150.901862,Exact,Operating,Grinding,n/a,0.82281077,0.5,news,2014,4296017436,Cement Australia Holdings Pty Ltd,https://www.cementaustralia.com.au/our-locations,4296017436,Cement Australia Holdings Pty Ltd,n/a,54930028JWJI02UJM203,Private,n/a,n/a,n/a,n/a,n/a,n/a,n/a,n/a,n/a,local,unknown,n/a
GACTAUS0019,Canning Vale,Western Australia,Australia,AUS,36,Oceania,Australia and New Zealand,-32.055833,115.9159,Exact,Operating,Integrated,Wet,0.7448026,0.5,news,n/a,4296017436,Cement Australia Holdings Pty Ltd,https://www.cementaustralia.com.au/our-locations,4296017436,Cement Australia Holdings Pty Ltd,n/a,54930028JWJI02UJM203,Private,n/a,n/a,n/a,n/a,n/a,n/a,n/a,n/a,n/a,local,unknown,n/a
GACTAUS0020,Port Melbourne,Victoria,Australia,AUS,36,Oceania,Australia and New Zealand,-37.821199,144.926994,Exact,Operating,Grinding,n/a,1.0000001,0.5,news,n/a,4296948088,Independent Cement and Lime Pty Ltd,https://bpsaust.com/contact/,4296948088,Independent Cement and Lime Pty Ltd,n/a,n/a,Private,n/a,n/a,n/a,n/a,n/a,n/a,n/a,n/a,n/a,local,limestone,n/a
GACTAUS0021,Port of Brisbane,Queensland,Australia,AUS,36,Oceania,Australia and New Zealand,-27.388321,153.161449,Exact,Operating,Integrated,Dry,0.9028691,1.5,company website,1985,4298146574,Sunstate Cement Ltd,https://sunstatecement.com.au/about-us/,4298146574,Sunstate Cement Ltd,n/a,n/a,Private,n/a,n/a,n/a,n/a,n/a,n/a,n/a,n/a,n/a,local,unknown,n/a
GACTAUS0022,Pinkenba,Queensland,Australia,AUS,36,Oceania,Australia and New Zealand,-27.416316,153.139204,Exact,Operating,Integrated,Dry,0.9028691,1.1,news,n/a,5039705674,Wagners Cement Pty Ltd,https://www.wagner.com.au/main/what-we-do/cement-flyash-lime/products/bulk/,5039705674,Wagners Cement Pty Ltd,n/a,n/a,Private,n/a,n/a,n/a,n/a,n/a,n/a,n/a,n/a,n/a,local,unknown,n/a
GACTAUT0001,Wopfing,Niederösterreich,Austria,AUT,40,Europe,Western Europe,47.873176,16.085765,Exact,Operating,Integrated,Wet,1,0.27,company reports,n/a,4296924079,Wopfinger Baustoffindustrie GmbH,https://int.baumit.com/contact/locations,4298425490,Baumit Beteiligungen GmbH,n/a,529900V7T386OO0XU060,Private,n/a,n/a,n/a,n/a,n/a,n/a,n/a,n/a,n/a,local,"limestone, clay",n/a
GACTAUT0002,Kirchdorf an der Krems,Oberösterreich,Austria,AUT,40,Europe,Western Europe,47.908647,14.116847,Exact,Operating,Grinding,n/a,1.0000001,0.55,company reports,1888,5036395056,Kirchdorfer Zementwerk Hofmann GmbH,https://www.kirchdorfer-zement.at/kontakt/adressen-lageplan-zufahrt/,5036395056,Kirchdorfer Zementwerk Hofmann GmbH,n/a,529900VQJEMKV44KKG90,Private,n/a,n/a,n/a,n/a,n/a,n/a,n/a,n/a,n/a,local,"limestone, clay",n/a
GACTAUT0003,Mannersdorf am Leithagebirge,Niederösterreich,Austria,AUT,40,Europe,Western Europe,47.983793,16.606415,Exact,Operating,Integrated,Dry,1,1.1,news,1894,5037628508,Lafarge Zementwerke GmbH,https://www.lafarge.at/ueber-uns/werk-mannersdorf,4295890620,LafargeHolcim Ltd,n/a,529900EHPFPYHV6IQO98,Public,LHN,SWX,n/a,n/a,n/a,n/a,n/a,n/a,n/a,local,"limestone, clay",n/a
GACTAUT0004,Retznei,Steiermark,Austria,AUT,40,Europe,Western Europe,46.737096,15.573051,Exact,Operating,Grinding,n/a,0.79368585,1,news,1908,5037628508,Lafarge Zementwerke GmbH,https://www.lafarge.at/ueber-uns/werk-retznei,4295890620,LafargeHolcim Ltd,n/a,529900EHPFPYHV6IQO98,Public,LHN,SWX,n/a,n/a,n/a,n/a,n/a,n/a,n/a,hybrid,unknown,n/a
GACTAUT0005,Hallein,Salzburg,Austria,AUT,40,Europe,Western Europe,47.723208,13.051516,Exact,Operating,Grinding,n/a,1.0000002,0.7,company reports,n/a,5001081393,Zementwerk Leube GmbH,https://www.leube.at/unternehmen/leube-gruppe/zementwerk/standort/,4297996634,Leube Baustoffe GmbH,n/a,n/a,Private,n/a,n/a,n/a,n/a,n/a,n/a,n/a,n/a,n/a,local,"limestone, clay",n/a
GACTAUT0006,Altmünster am Traunsee,Oberösterreich,Austria,AUT,40,Europe,Western Europe,47.921903,13.777083,Exact,Operating,Grinding,n/a,1.0000001,0.58,company reports,1908,5000955406,Gmundner Zementwerke Hatschek,https://www.rohrdorfer.eu/zement/firmen/,4296645700,Rohrdorfer Zementwerke,n/a,n/a,Private,n/a,n/a,n/a,n/a,n/a,n/a,n/a,n/a,n/a,local,"limestone, clay",n/a
GACTAUT0007,Söll,Tirol,Austria,AUT,40,Europe,Western Europe,47.550979,12.168075,Exact,Operating,Grinding,n/a,1.0000002,0.6,company reports,1865,n/a,Betonwerke Unterland GmbH & Co KG,https://www.rohrdorfer.eu/transportbeton/betonwerke-unterland-gmbh-co-kg/,4296645700,Rohrdorfer Zementwerke,n/a,n/a,Private,n/a,n/a,n/a,n/a,n/a,n/a,n/a,n/a,n/a,local,"limestone, clay",n/a
GACTAUT0008,Vils,Tirol,Austria,AUT,40,Europe,Western Europe,47.552199,10.638447,Exact,Operating,Integrated,Wet,0.8161862,1.5,news,1899,5039593685,Schretter & Cie GmbH & Co KG,http://www.schretter-vils.co.at/en/about-us/location-directions/,5039593685,Schretter & Cie GmbH & Co KG,n/a,529900K0YTW4UFLUQD26,Private,n/a,n/a,n/a,n/a,n/a,n/a,n/a,n/a,n/a,local,unknown,n/a
GACTAUT0009,Wietersdorf,Kärnten,Austria,AUT,40,Europe,Western Europe,46.851283,14.532924,Exact,Operating,Integrated,Wet,0.85627747,0.3,news,1893,5039595869,w&p Zement GmbH,https://zement.wup.at/kontakt/,5001083840,Wietersdorfer & Peggauer Zementwerke GmbH,n/a,n/a,Private,n/a,n/a,n/a,n/a,n/a,n/a,n/a,n/a,n/a,local,unknown,n/a
GACTAUT0010,Peggau,Steiermark,Austria,AUT,40,Europe,Western Europe,47.213805,15.344482,Exact,Operating,Integrated,Wet,0.79368585,2.8,news,n/a,5039595869,w&p Zement GmbH,https://zement.wup.at/kontakt/,5001083840,Wietersdorfer & Peggauer Zementwerke GmbH,n/a,n/a,Private,n/a,n/a,n/a,n/a,n/a,n/a,n/a,n/a,n/a,hybrid,unknown,n/a
GACTAZE0001,Bakı,n/a,Azerbaijan,AZE,31,Asia,Western Asia,40.224409,49.556633,Exact,Operating,Integrated,Dry,0.5534505,2.5,news,1950,5036791377,Holcim Azarbaijan ASJ,https://www.holcim.az/az/haqqimizda/qaradag-sement-zavodunun-holcim-azrbaycan-asc-tarixi,4295890620,LafargeHolcim Ltd,n/a,529900EHPFPYHV6IQO98,Public,LHN,SWX,n/a,n/a,n/a,n/a,n/a,n/a,n/a,hybrid,unknown,clinker
GACTAZE0002,Qazax,n/a,Azerbaijan,AZE,31,Asia,Western Asia,41.16592,45.254606,Exact,Operating,Integrated,Dry,0.64681846,1.5,news,n/a,n/a,n/a,n/a,n/a,n/a,n/a,n/a,n/a,n/a,n/a,n/a,n/a,n/a,n/a,n/a,n/a,n/a,local,unknown,n/a
GACTAZE0003,Bakı,n/a,Azerbaijan,AZE,31,Asia,Western Asia,40.251212,49.447206,Exact,Operating,Integrated,Dry,0.5534505,1,news,n/a,n/a,n/a,n/a,n/a,n/a,n/a,n/a,n/a,n/a,n/a,n/a,n/a,n/a,n/a,n/a,n/a,n/a,hybrid,unknown,clinker
GACTBDI0001,Cibitoke,Cibitoke,Burundi,BDI,108,Africa,Sub-Saharan Africa,-2.883556,29.114364,Exact,Operating,Grinding,n/a,0.8004885,0.1,company reports,n/a,n/a,n/a,n/a,n/a,n/a,n/a,n/a,n/a,n/a,n/a,n/a,n/a,n/a,n/a,n/a,n/a,n/a,local,"limestone, gypsum",n/a
GACTBEL0001,Antwerpen,Vlaanderen,Belgium,BEL,56,Europe,Western Europe,51.245592,4.359027,Exact,Operating,Grinding,n/a,0.9999999,1,news,2002,4298254584,VVM NV,https://www.vvmcem.be/en,4295874867,CRH PLC,n/a,549300MIDJNNTH068E74,Public,CRH,LSE,n/a,n/a,n/a,n/a,n/a,n/a,n/a,hybrid,unknown,n/a
GACTBEL0002,Gent,Vlaanderen,Belgium,BEL,56,Europe,Western Europe,51.168149,3.787209,Exact,Operating,Grinding,n/a,0.9999999,1.5,news,2006,4298254584,VVM NV,https://www.vvmcem.be/en,4295874867,CRH PLC,n/a,549300MIDJNNTH068E74,Public,CRH,LSE,n/a,n/a,n/a,n/a,n/a,n/a,n/a,hybrid,unknown,n/a
GACTBEL0003,Tournai,Wallonie,Belgium,BEL,56,Europe,Western Europe,50.600652,3.486634,Exact,Operating,Integrated,Dry,0.9999999,1.8,company reports,n/a,4296952311,Compagnie Des Ciments Belges SA,http://ccb-cementir.be/implantations/,5071500150,Cementir Holding NV,n/a,8156008B101B97A43B02,Public,CEM,MIL,n/a,n/a,n/a,n/a,n/a,n/a,n/a,hybrid,unknown,n/a
GACTBEL0004,Gent,Vlaanderen,Belgium,BEL,56,Europe,Western Europe,51.163852,3.766917,Exact,Operating,Integrated,Dry,0.9999999,1,company website,n/a,5064637768,Cemminerals NV,https://cemminerals.be/en/,5064637768,Cemminerals NV,n/a,875500DYXEPRS6UC9T64,Private,n/a,n/a,n/a,n/a,n/a,n/a,n/a,n/a,n/a,hybrid,unknown,n/a
GACTBEL0005,Antoing,Wallonie,Belgium,BEL,56,Europe,Western Europe,50.576126,3.442482,Exact,Operating,Grinding,n/a,0.9999999,0.9,company website,1986,4295859365,Cimenteries CBR SA,https://www.cbr.be/nld/cbr-antoing,4295868961,HeidelbergCement AG,n/a,LZ2C6E0W5W7LQMX5ZI37,Public,HEI,GER,n/a,n/a,n/a,n/a,n/a,n/a,n/a,hybrid,unknown,n/a
GACTBEL0006,Visé,Wallonie,Belgium,BEL,56,Europe,Western Europe,50.765227,5.673726,Exact,Operating,Grinding,n/a,0.9999999,1.5,company website,1950,4295859365,Cimenteries CBR SA,https://www.cbr.be/nld/cbr-lixhe,4295868961,HeidelbergCement AG,n/a,LZ2C6E0W5W7LQMX5ZI37,Public,HEI,GER,n/a,n/a,n/a,n/a,n/a,n/a,n/a,hybrid,unknown,n/a
GACTBEL0007,Gent,Vlaanderen,Belgium,BEL,56,Europe,Western Europe,51.152206,3.786993,Exact,Operating,Integrated,Wet,0.9999999,1.5,company website,n/a,4295859365,Cimenteries CBR SA,https://www.cbr.be/nld/cbr-gent-I,4295868961,HeidelbergCement AG,n/a,LZ2C6E0W5W7LQMX5ZI37,Public,HEI,GER,n/a,n/a,n/a,n/a,n/a,n/a,n/a,hybrid,unknown,n/a
GACTBEL0008,Mons,Wallonie,Belgium,BEL,56,Europe,Western Europe,50.472411,3.992566,Exact,Operating,Grinding,n/a,0.65402615,1.2,news,1911,4298252898,Holcim Belgique Holcim Belgie SA,https://www.holcim.be/fr/nos-sites/cimenterie-d%27obourg/obourg/128,4295890620,LafargeHolcim Ltd,n/a,529900EHPFPYHV6IQO98,Public,LHN,SWX,n/a,n/a,n/a,n/a,n/a,n/a,n/a,hybrid,limestone,clinker
GACTBEN0001,Agblangandan,Littoral Department,Benin,BEN,204,Africa,Sub-Saharan Africa,6.37161,2.504159,Exact,Operating,Grinding,n/a,0.4832756,0.34,company reports,n/a,4297399454,Cimbenin SA,https://www.heidelbergcement.com/en/sub-saharan-africa,4295868961,HeidelbergCement AG,n/a,LZ2C6E0W5W7LQMX5ZI37,Public,HEI,GER,n/a,n/a,n/a,n/a,n/a,n/a,n/a,local,"limestone, sand, clay",n/a
GACTBEN0002,Onigbolo,Plateau Department,Benin,BEN,204,Africa,Sub-Saharan Africa,7.149135,2.650478,Exact,Operating,Integrated,Dry,0.4832756,0.6,company reports,1983,n/a,Société des Ciments du Bénin,https://www.cimentbouclier.com/?lang=en,4295890620,LafargeHolcim Ltd,n/a,529900EHPFPYHV6IQO98,Public,LHN,SWX,n/a,n/a,n/a,n/a,n/a,n/a,n/a,local,"limestone, sand, clay",n/a
GACTBEN0003,Ouinhi,Plateau,Benin,BEN,204,Africa,Sub-Saharan Africa,7.143572,2.545286,Exact,Operating,Integrated,Dry,0.4832756,1.7,company reports,n/a,n/a,n/a,n/a,n/a,n/a,n/a,n/a,n/a,n/a,n/a,n/a,n/a,n/a,n/a,n/a,n/a,n/a,local,"limestone, sand, clay",n/a
GACTBEN0004,Cotonou,Littoral,Benin,BEN,204,Africa,Sub-Saharan Africa,6.353237,2.43963,Exact,Operating,Integrated,Dry,0.4832756,0.7,company reports,n/a,n/a,n/a,n/a,n/a,n/a,n/a,n/a,n/a,n/a,n/a,n/a,n/a,n/a,n/a,n/a,n/a,n/a,local,"limestone, sand, clay",n/a
GACTBFA0001,Ouagadougou,Centre,Burkina Faso,BFA,854,Africa,Sub-Saharan Africa,12.437855,-1.47837,Exact,Operating,Integrated,Dry,0.7137912,0.5,company website,n/a,5042932488,Ciments de l'Afrique,https://www.cimentsafrique.com/presence,5042932488,Ciments de l'Afrique,n/a,n/a,Private,n/a,n/a,n/a,n/a,n/a,n/a,n/a,n/a,n/a,local,limestone,n/a
GACTBFA0002,Ouagadougou,Centre,Burkina Faso,BFA,854,Africa,Sub-Saharan Africa,12.445571,-1.50022,Exact,Operating,Integrated,Dry,0.7137912,0.9,news,n/a,5074839689,CimBurkina SA,https://www.heidelbergcement.com/en/sub-saharan-africa,4295868961,HeidelbergCement AG,n/a,LZ2C6E0W5W7LQMX5ZI37,Public,HEI,GER,n/a,n/a,n/a,n/a,n/a,n/a,n/a,local,limestone,n/a
GACTBFA0003,Ouagadougou,Centre,Burkina Faso,BFA,854,Africa,Sub-Saharan Africa,12.355061,-1.640093,Exact,Operating,Integrated,Dry,0.8150901,0.7,company reports,n/a,n/a,Diamond Cement Burkina SA,https://diamondcementgroup.com/,5060542042,West African Cement SA,n/a,2138004M85WQEEXTDG22,Private,n/a,n/a,n/a,n/a,n/a,n/a,n/a,n/a,n/a,local,limestone,n/a
GACTBFA0004,Ouagadougou,Centre,Burkina Faso,BFA,854,Africa,Sub-Saharan Africa,12.435023,-1.481016,Exact,Operating,Integrated,Dry,0.7137912,1.2,news,n/a,n/a,n/a,n/a,n/a,n/a,n/a,n/a,n/a,n/a,n/a,n/a,n/a,n/a,n/a,n/a,n/a,n/a,local,limestone,n/a
GACTBGD0001,Chhatak,Sylhet Division,Bangladesh,BGD,50,Asia,Southern Asia,25.046629,91.65805,Exact,Operating,Integrated,Dry,0.9999999,0.19,company website,1937,n/a,Chhatak Cement Company Ltd,http://www.bcic.gov.bd/site/page/bc9685f8-adc9-4546-8e56-87fc3f5f6865/-,5063315354,Bangladesh Chemical Industries Corp,n/a,n/a,Private,n/a,n/a,n/a,n/a,n/a,n/a,n/a,n/a,n/a,local,unknown,n/a
GACTBGD0002,Narayanganj District,Dhaka Division,Bangladesh,BGD,50,Asia,Southern Asia,23.71286,90.51543,Exact,Operating,Integrated,Wet,0.8961292,3,news,n/a,4296392248,Heidelberg Cement Bangladesh Ltd,https://www.heidelbergcementbd.com/our_offices_and_plants.aspx,4295868961,HeidelbergCement AG,n/a,LZ2C6E0W5W7LQMX5ZI37,Public,HEI,GER,n/a,n/a,n/a,n/a,n/a,n/a,n/a,local,unknown,n/a
GACTBGD0003,Chittagong,Chittagong Division,Bangladesh,BGD,50,Asia,Southern Asia,22.279538,91.795684,Exact,Operating,Integrated,Dry,0.6712319,1.7,news,n/a,4296392248,Heidelberg Cement Bangladesh Ltd,https://www.heidelbergcementbd.com/our_offices_and_plants.aspx,4295868961,HeidelbergCement AG,n/a,LZ2C6E0W5W7LQMX5ZI37,Public,HEI,GER,n/a,n/a,n/a,n/a,n/a,n/a,n/a,hybrid,"limestone, coal",n/a
GACTBGD0004,Sunamganj District,Sylhet Division,Bangladesh,BGD,50,Asia,Southern Asia,25.035495,91.647603,Exact,Operating,Integrated,Wet,0.9999999,0.75,news,n/a,4296127762,LafargeHolcim Bangladesh Ltd,https://www.lafargeholcim.com.bd/company-profile,4295890620,LafargeHolcim Ltd,n/a,529900EHPFPYHV6IQO98,Public,LHN,SWX,n/a,n/a,n/a,n/a,n/a,n/a,n/a,local,unknown,n/a
GACTBGD0005,Munshiganj District,Dhaka Division,Bangladesh,BGD,50,Asia,Southern Asia,23.611005,90.613007,Exact,Operating,Integrated,Wet,0.6712319,2.4,news,n/a,4296127762,LafargeHolcim Bangladesh Ltd,https://www.lafargeholcim.com.bd/company-profile,4295890620,LafargeHolcim Ltd,n/a,529900EHPFPYHV6IQO98,Public,LHN,SWX,n/a,n/a,n/a,n/a,n/a,n/a,n/a,hybrid,"limestone, coal",n/a
GACTBGD0006,Mongla,Khulna Division,Bangladesh,BGD,50,Asia,Southern Asia,22.504972,89.589503,Exact,Operating,Integrated,Dry,0.9258488,2,news,n/a,4296127762,LafargeHolcim Bangladesh Ltd,https://www.lafargeholcim.com.bd/company-profile,4295890620,LafargeHolcim Ltd,n/a,529900EHPFPYHV6IQO98,Public,LHN,SWX,n/a,n/a,n/a,n/a,n/a,n/a,n/a,local,unknown,n/a
GACTBGD0007,Kaliganj,Dhaka Division,Bangladesh,BGD,50,Asia,Southern Asia,23.934081,90.613085,Exact,Operating,Integrated,Wet,0.99999994,1.2,news,n/a,n/a,Seven Circle Bangladesh Limited,http://www.ssgil.com/manufacturing/cement-plants/,5046047295,Shun Shing Group International Ltd,n/a,n/a,Private,n/a,n/a,n/a,n/a,n/a,n/a,n/a,n/a,n/a,hybrid,"limestone, coal",n/a
GACTBGD0008,Khulna,Khulna Division,Bangladesh,BGD,50,Asia,Southern Asia,22.784672,89.581336,Exact,Operating,Grinding,n/a,0.9258488,1.2,news,n/a,n/a,Shun Shing Cement Mills Ltd,http://www.ssgil.com/manufacturing/cement-plants/,5046047295,Shun Shing Group International Ltd,n/a,n/a,Private,n/a,n/a,n/a,n/a,n/a,n/a,n/a,n/a,n/a,local,unknown,n/a
GACTBGD0009,Kadamrasul,Dhaka Division,Bangladesh,BGD,50,Asia,Southern Asia,23.625073,90.514676,Exact,Operating,Grinding,n/a,0.6712319,2.5,news,n/a,n/a,n/a,n/a,n/a,n/a,n/a,n/a,n/a,n/a,n/a,n/a,n/a,n/a,n/a,n/a,n/a,n/a,hybrid,"limestone, coal",n/a
GACTBGD0010,Kadamrasul,Dhaka Division,Bangladesh,BGD,50,Asia,Southern Asia,23.587847,90.516466,Exact,Operating,Grinding,n/a,0.6712319,1.6,news,n/a,n/a,n/a,n/a,n/a,n/a,n/a,n/a,n/a,n/a,n/a,n/a,n/a,n/a,n/a,n/a,n/a,n/a,hybrid,"limestone, coal",n/a
GACTBGD0011,Mongla,Khulna Division,Bangladesh,BGD,50,Asia,Southern Asia,22.515404,89.587142,Exact,Operating,Integrated,Dry,0.9258488,1.2,news,n/a,n/a,n/a,n/a,n/a,n/a,n/a,n/a,n/a,n/a,n/a,n/a,n/a,n/a,n/a,n/a,n/a,n/a,local,unknown,n/a
GACTBGD0012,Kadamrasul,Dhaka Division,Bangladesh,BGD,50,Asia,Southern Asia,23.599461,90.510752,Exact,Operating,Grinding,n/a,0.6712319,0.6,company reports,n/a,n/a,n/a,n/a,n/a,n/a,n/a,n/a,n/a,n/a,n/a,n/a,n/a,n/a,n/a,n/a,n/a,n/a,hybrid,"limestone, coal",n/a
GACTBGD0013,Munshiganj District,Dhaka Division,Bangladesh,BGD,50,Asia,Southern Asia,23.576689,90.508382,Exact,Operating,Grinding,n/a,0.6712319,1,news,n/a,n/a,n/a,n/a,n/a,n/a,n/a,n/a,n/a,n/a,n/a,n/a,n/a,n/a,n/a,n/a,n/a,n/a,hybrid,"limestone, coal",n/a
GACTBGD0014,Mongla,Khulna Division,Bangladesh,BGD,50,Asia,Southern Asia,22.517834,89.585596,Exact,Operating,Integrated,Dry,0.9258488,0.5,news,n/a,n/a,n/a,n/a,n/a,n/a,n/a,n/a,n/a,n/a,n/a,n/a,n/a,n/a,n/a,n/a,n/a,n/a,local,unknown,n/a
GACTBGD0015,Munshiganj District,Dhaka Division,Bangladesh,BGD,50,Asia,Southern Asia,23.568501,90.520327,Exact,Operating,Integrated,Wet,0.6712319,0.5,news,n/a,n/a,n/a,n/a,n/a,n/a,n/a,n/a,n/a,n/a,n/a,n/a,n/a,n/a,n/a,n/a,n/a,n/a,hybrid,"limestone, coal",n/a
GACTBGD0016,Chittagong,Chittagong Division,Bangladesh,BGD,50,Asia,Southern Asia,22.26509,91.796193,Exact,Operating,Integrated,Dry,0.6712319,1,news,n/a,n/a,n/a,n/a,n/a,n/a,n/a,n/a,n/a,n/a,n/a,n/a,n/a,n/a,n/a,n/a,n/a,n/a,hybrid,"limestone, coal",n/a
GACTBGD0017,Ichanagar,Chittagong Division,Bangladesh,BGD,50,Asia,Southern Asia,22.307487,91.812937,Exact,Operating,Grinding,n/a,0.6712319,1.5,news,n/a,n/a,n/a,n/a,n/a,n/a,n/a,n/a,n/a,n/a,n/a,n/a,n/a,n/a,n/a,n/a,n/a,n/a,hybrid,"limestone, coal",n/a
GACTBGD0018,Ichanagar,Chittagong Division,Bangladesh,BGD,50,Asia,Southern Asia,22.308584,91.8143,Exact,Operating,Grinding,n/a,0.6712319,1.5,news,n/a,n/a,n/a,n/a,n/a,n/a,n/a,n/a,n/a,n/a,n/a,n/a,n/a,n/a,n/a,n/a,n/a,n/a,hybrid,"limestone, coal",n/a
GACTBGD0019,Chittagong District,Chittagong Division,Bangladesh,BGD,50,Asia,Southern Asia,22.312268,91.858,Exact,Operating,Grinding,n/a,0.6712319,1.5,news,n/a,n/a,n/a,n/a,n/a,n/a,n/a,n/a,n/a,n/a,n/a,n/a,n/a,n/a,n/a,n/a,n/a,n/a,hybrid,"limestone, coal",n/a
GACTBGD0020,Chittagong,Chittagong Division,Bangladesh,BGD,50,Asia,Southern Asia,22.381623,91.869938,Exact,Operating,Integrated,Dry,0.6712319,1.4,news,n/a,n/a,n/a,n/a,n/a,n/a,n/a,n/a,n/a,n/a,n/a,n/a,n/a,n/a,n/a,n/a,n/a,n/a,hybrid,"limestone, coal",n/a
GACTBGD0021,Chattogram,Chittagong Division,Bangladesh,BGD,50,Asia,Southern Asia,22.441231,91.738037,Exact,Operating,Integrated,Wet,0.6712319,1.2,news,n/a,n/a,n/a,n/a,n/a,n/a,n/a,n/a,n/a,n/a,n/a,n/a,n/a,n/a,n/a,n/a,n/a,n/a,hybrid,"limestone, coal",n/a
GACTBGD0022,Kumira,Chittagong Division,Bangladesh,BGD,50,Asia,Southern Asia,22.502645,91.71544,Exact,Operating,Integrated,Wet,0.6712319,1.9,news,n/a,n/a,n/a,n/a,n/a,n/a,n/a,n/a,n/a,n/a,n/a,n/a,n/a,n/a,n/a,n/a,n/a,n/a,hybrid,"limestone, coal",n/a
GACTBGD0023,Mongla,Khulna Division,Bangladesh,BGD,50,Asia,Southern Asia,22.503884,89.590302,Exact,Operating,Integrated,Dry,0.9258488,1.4,news,n/a,n/a,n/a,n/a,n/a,n/a,n/a,n/a,n/a,n/a,n/a,n/a,n/a,n/a,n/a,n/a,n/a,n/a,local,unknown,n/a
GACTBGD0024,Mongla,Khulna Division,Bangladesh,BGD,50,Asia,Southern Asia,22.51778,89.585416,Exact,Operating,Integrated,Dry,0.9258488,1.8,news,n/a,n/a,n/a,n/a,n/a,n/a,n/a,n/a,n/a,n/a,n/a,n/a,n/a,n/a,n/a,n/a,n/a,n/a,local,unknown,n/a
GACTBGD0025,Sultana Mondir,Chittagong Division,Bangladesh,BGD,50,Asia,Southern Asia,22.53217,91.700866,Exact,Operating,Integrated,Dry,0.6712319,1.7,news,n/a,n/a,n/a,n/a,n/a,n/a,n/a,n/a,n/a,n/a,n/a,n/a,n/a,n/a,n/a,n/a,n/a,n/a,hybrid,"limestone, coal",n/a
GACTBGD0026,Barisal,Barisal Division,Bangladesh,BGD,50,Asia,Southern Asia,22.652466,90.345293,Exact,Operating,Integrated,Wet,0.9258488,1.5,news,n/a,n/a,n/a,n/a,n/a,n/a,n/a,n/a,n/a,n/a,n/a,n/a,n/a,n/a,n/a,n/a,n/a,n/a,local,unknown,n/a
GACTBGD0027,Munshiganj District,Dhaka Division,Bangladesh,BGD,50,Asia,Southern Asia,23.568618,90.524404,Exact,Operating,Integrated,Wet,0.6712319,1.86,company reports,n/a,n/a,n/a,n/a,n/a,n/a,n/a,n/a,n/a,n/a,n/a,n/a,n/a,n/a,n/a,n/a,n/a,n/a,hybrid,"limestone, coal",n/a
GACTBGD0028,Munshiganj District,Dhaka Division,Bangladesh,BGD,50,Asia,Southern Asia,23.571925,90.521455,Exact,Operating,Integrated,Wet,0.6712319,1.4,news,n/a,n/a,n/a,n/a,n/a,n/a,n/a,n/a,n/a,n/a,n/a,n/a,n/a,n/a,n/a,n/a,n/a,n/a,hybrid,"limestone, coal",n/a
GACTBGD0029,Munshiganj District,Dhaka Division,Bangladesh,BGD,50,Asia,Southern Asia,23.578555,90.513202,Exact,Operating,Grinding,n/a,0.6712319,2.4,company reports,n/a,n/a,n/a,n/a,n/a,n/a,n/a,n/a,n/a,n/a,n/a,n/a,n/a,n/a,n/a,n/a,n/a,n/a,hybrid,"limestone, coal",n/a
GACTBGD0030,Gazaria,Dhaka Division,Bangladesh,BGD,50,Asia,Southern Asia,23.602161,90.624685,Exact,Operating,Integrated,Dry,0.6712319,1.2,news,n/a,n/a,n/a,n/a,n/a,n/a,n/a,n/a,n/a,n/a,n/a,n/a,n/a,n/a,n/a,n/a,n/a,n/a,hybrid,"limestone, coal",n/a
GACTBGD0031,Narayanganj District,Dhaka Division,Bangladesh,BGD,50,Asia,Southern Asia,23.609232,90.61001,Exact,Operating,Integrated,Wet,0.6712319,1.2,news,n/a,n/a,n/a,n/a,n/a,n/a,n/a,n/a,n/a,n/a,n/a,n/a,n/a,n/a,n/a,n/a,n/a,n/a,hybrid,"limestone, coal",n/a
GACTBGD0032,Narayanganj District,Dhaka Division,Bangladesh,BGD,50,Asia,Southern Asia,23.612783,90.606232,Exact,Operating,Integrated,Dry,0.6712319,1,news,n/a,n/a,n/a,n/a,n/a,n/a,n/a,n/a,n/a,n/a,n/a,n/a,n/a,n/a,n/a,n/a,n/a,n/a,hybrid,"limestone, coal",n/a
GACTBGD0033,Narayanganj District,Dhaka Division,Bangladesh,BGD,50,Asia,Southern Asia,23.666471,90.634656,Exact,Operating,Integrated,Dry,0.6712319,0.9,news,n/a,n/a,n/a,n/a,n/a,n/a,n/a,n/a,n/a,n/a,n/a,n/a,n/a,n/a,n/a,n/a,n/a,n/a,hybrid,"limestone, coal",n/a
GACTBGD0034,Baradi,Dhaka Division,Bangladesh,BGD,50,Asia,Southern Asia,23.695611,90.641303,Exact,Operating,Integrated,Dry,0.6712319,0.8,news,n/a,n/a,n/a,n/a,n/a,n/a,n/a,n/a,n/a,n/a,n/a,n/a,n/a,n/a,n/a,n/a,n/a,n/a,hybrid,"limestone, coal",n/a
GACTBGD0035,Narayanganj District,Dhaka Division,Bangladesh,BGD,50,Asia,Southern Asia,23.770601,90.512821,Exact,Operating,Integrated,Wet,0.8961292,0.7,news,n/a,n/a,n/a,n/a,n/a,n/a,n/a,n/a,n/a,n/a,n/a,n/a,n/a,n/a,n/a,n/a,n/a,n/a,local,unknown,n/a
GACTBGD0036,Narsingdi District,Dhaka Division,Bangladesh,BGD,50,Asia,Southern Asia,23.894575,90.588746,Exact,Operating,Integrated,Wet,0.99999994,0.4,news,n/a,n/a,n/a,n/a,n/a,n/a,n/a,n/a,n/a,n/a,n/a,n/a,n/a,n/a,n/a,n/a,n/a,n/a,hybrid,"limestone, coal",n/a
GACTBGD0037,Sirajganj District,Rajshahi Division,Bangladesh,BGD,50,Asia,Southern Asia,24.127959,89.586911,Exact,Operating,Integrated,Wet,0.91750747,0.4,news,n/a,n/a,n/a,n/a,n/a,n/a,n/a,n/a,n/a,n/a,n/a,n/a,n/a,n/a,n/a,n/a,n/a,n/a,local,unknown,n/a
GACTBGD0038,Sirajganj District,Rajshahi Division,Bangladesh,BGD,50,Asia,Southern Asia,24.290893,89.566546,Exact,Operating,Integrated,Dry,0.91750747,0.35,news,n/a,n/a,n/a,n/a,n/a,n/a,n/a,n/a,n/a,n/a,n/a,n/a,n/a,n/a,n/a,n/a,n/a,n/a,local,unknown,n/a
GACTBGR0001,Devnya,Varna,Bulgaria,BGR,100,Europe,Eastern Europe,43.235208,27.594851,Exact,Operating,Grinding,n/a,1,2,company reports,1958,4296850588,Devnya-Cement EAD (Marvex),https://www.devnyacement.bg/en/about,4295868961,HeidelbergCement AG,n/a,LZ2C6E0W5W7LQMX5ZI37,Public,HEI,GER,n/a,n/a,n/a,n/a,n/a,n/a,n/a,hybrid,unknown,clinker
GACTBGR0002,Dimitrovgrad,Haskovo,Bulgaria,BGR,100,Europe,Eastern Europe,42.073597,25.548066,Exact,Operating,Grinding,n/a,1,0.5,company reports,1947,5000043262,Vulkan Cement AD Dimitrovgrad,https://www.devnyacement.bg/en/about,4295868961,HeidelbergCement AG,n/a,LZ2C6E0W5W7LQMX5ZI37,Public,HEI,GER,n/a,n/a,n/a,n/a,n/a,n/a,n/a,local,unknown,n/a
GACTBGR0003,Vratsa,Vratza,Bulgaria,BGR,100,Europe,Eastern Europe,43.281929,23.466674,Exact,Operating,Integrated,Wet,1,1.7,company reports,1960,5001083560,Holcim Bulgaria AD Vratsa,https://www.holcim.bg/bg/za-nas/profil-na-kompanijata/kholsim-blgarija-ad,4295890620,LafargeHolcim Ltd,n/a,529900EHPFPYHV6IQO98,Public,LHN,SWX,n/a,n/a,n/a,n/a,n/a,n/a,n/a,local,unknown,n/a
GACTBGR0004,Brestnitsa,Lovech,Bulgaria,BGR,100,Europe,Eastern Europe,43.087727,24.174899,Exact,Operating,Integrated,Wet,1,1.5,company reports,1907,5034824678,Zlatna Panega Cement AD,https://www.titan.bg/contact.html,5066579091,Titan Cement International SA,n/a,213800H2CDP9I374WH83,Public,TITC,BRU,n/a,n/a,n/a,n/a,n/a,n/a,n/a,local,unknown,n/a
GACTBHR0001,Al Hidd,Mu__fa_at al-Mu_arraq,Bahrain,BHR,48,Asia,Western Asia,26.220002,50.656492,Exact,Operating,Grinding,n/a,0.75689507,1.5,news,n/a,5074497900,Ultratech Cement Bahrain Co WLL,http://www.starcement.ae/index.php/contact-us,5000053377,Aditya Birla Management Corporation Pvt Ltd,n/a,335800GITXOP4O6TQM65,Private,n/a,n/a,n/a,n/a,n/a,n/a,n/a,n/a,n/a,local,limestone,n/a
GACTBHR0002,Askar,Al-Mu__fa_at al-Jan_b_yah,Bahrain,BHR,48,Asia,Western Asia,26.03186,50.594119,Exact,Operating,Integrated,Dry,0.75689507,1.241,company reports,n/a,n/a,n/a,n/a,n/a,n/a,n/a,n/a,n/a,n/a,n/a,n/a,n/a,n/a,n/a,n/a,n/a,n/a,local,limestone,n/a
GACTBIH0001,Kakanj,Federacija Bosne i Hercegovine,Bosnia and Herzegovina,BIH,70,Europe,Southern Europe,44.116891,18.113319,Exact,Operating,Integrated,Wet,0.73612064,0.4,company reports,1978,4297175240,Tvornica Cementa Kakanj dd Kakanj,https://www.kakanjcement.ba/bs/O_TCK,4295868961,HeidelbergCement AG,n/a,LZ2C6E0W5W7LQMX5ZI37,Public,HEI,GER,n/a,n/a,n/a,n/a,n/a,n/a,n/a,local,"limestone, clay",n/a
GACTBIH0002,Lukavac,Federacija Bosne i Hercegovine,Bosnia and Herzegovina,BIH,70,Europe,Southern Europe,44.526342,18.526956,Exact,Operating,Grinding,n/a,0.6589263,0.8,company reports,n/a,n/a,n/a,n/a,n/a,n/a,n/a,n/a,n/a,n/a,n/a,n/a,n/a,n/a,n/a,n/a,n/a,n/a,local,"limestone, clay",n/a
GACTBLR0001,Kastsyukovichy District,Mogilev Region,Belarus,BLR,112,Europe,Eastern Europe,53.39241,32.012274,Exact,Operating,Integrated,Dry,0.9268623,2.9,company reports,n/a,n/a,n/a,n/a,n/a,n/a,n/a,n/a,n/a,n/a,n/a,n/a,n/a,n/a,n/a,n/a,n/a,n/a,local,"limestone, clay",n/a
GACTBLR0002,Va_kavyski rajon,Hrodna Region,Belarus,BLR,112,Europe,Eastern Europe,53.261694,24.447365,Exact,Operating,Integrated,Wet,0.9999997,2.7,company reports,n/a,n/a,n/a,n/a,n/a,n/a,n/a,n/a,n/a,n/a,n/a,n/a,n/a,n/a,n/a,n/a,n/a,n/a,local,"limestone, clay",n/a
GACTBLR0003,Krychaw,Mogilev Region,Belarus,BLR,112,Europe,Eastern Europe,53.731542,31.72404,Exact,Operating,Grinding,n/a,0.661468,1.8,company reports,n/a,n/a,n/a,n/a,n/a,n/a,n/a,n/a,n/a,n/a,n/a,n/a,n/a,n/a,n/a,n/a,n/a,n/a,local,limestone,n/a
GACTBOL0001,Puerto Quijarro,Departamento de Santa Cruz,Bolivia,BOL,68,Americas,Latin America and the Caribbean,-19.014555,-57.70235,Exact,Operating,Integrated,Wet,1,0.2,company reports,1991,4296042510,Gravetal Bolivia SA,https://www.gravetal.com.bo/,4296042510,Gravetal Bolivia SA,n/a,549300CK80121INBC320,Private,n/a,n/a,n/a,n/a,n/a,n/a,n/a,n/a,n/a,local,"limestone, clay",n/a
GACTBOL0002,El Alto,Departamento de La Paz,Bolivia,BOL,68,Americas,Latin America and the Caribbean,-16.647194,-68.316934,Exact,Operating,Grinding,n/a,1.0000002,2,company website,1928,4296767075,Sociedad Boliviana de Cemento SA,https://www.soboce.com/planta_viacha.asp,4296767075,Sociedad Boliviana de Cemento SA,n/a,n/a,Public,52SBCNU,BBV,n/a,n/a,n/a,n/a,n/a,n/a,n/a,local,"limestone, clay",n/a
GACTBOL0003,Eustaquio Méndez,Departamento de Tarija,Bolivia,BOL,68,Americas,Latin America and the Caribbean,-21.247315,-65.20765,Exact,Operating,Integrated,Wet,0.75647956,0.338,company website,n/a,4296767075,Sociedad Boliviana de Cemento SA,https://www.soboce.com/planta_elpuente.asp,4296767075,Sociedad Boliviana de Cemento SA,n/a,n/a,Public,52SBCNU,BBV,n/a,n/a,n/a,n/a,n/a,n/a,n/a,local,unknown,n/a
GACTBOL0004,Oruro,Departamento de Oruro,Bolivia,BOL,68,Americas,Latin America and the Caribbean,-17.936151,-67.077067,Exact,Operating,Integrated,Dry,0.81117976,0.166,company website,1980,4296767075,Sociedad Boliviana de Cemento SA,https://www.soboce.com/planta_emisa.asp,4296767075,Sociedad Boliviana de Cemento SA,n/a,n/a,Public,52SBCNU,BBV,n/a,n/a,n/a,n/a,n/a,n/a,n/a,local,unknown,n/a
GACTBOL0005,Provincia de Ignacio Warnes,Departamento de Santa Cruz,Bolivia,BOL,68,Americas,Latin America and the Caribbean,-17.568654,-63.150661,Exact,Operating,Integrated,Dry,1,0.202,company website,1995,4296767075,Sociedad Boliviana de Cemento SA,https://www.soboce.com/planta_warnes.asp,4296767075,Sociedad Boliviana de Cemento SA,n/a,n/a,Public,52SBCNU,BBV,n/a,n/a,n/a,n/a,n/a,n/a,n/a,local,"limestone, clay",n/a
GACTBOL0006,Provincia de Germán Busch,Departamento de Santa Cruz,Bolivia,BOL,68,Americas,Latin America and the Caribbean,-18.951114,-58.278028,Exact,Operating,Integrated,Wet,1,0.95,company website,n/a,5036160403,Itacamba Cemento SA,http://www.itacamba.com/empresa/planta-integral-yacuses/,5000075361,Votorantim SA,n/a,5493009RIHSE12DQ0J28,Private,n/a,n/a,n/a,n/a,n/a,n/a,n/a,n/a,n/a,local,"limestone, clay",n/a
GACTBOL0007,Irpa Irpa,Departamento de Cochabamba,Bolivia,BOL,68,Americas,Latin America and the Caribbean,-17.724835,-66.291682,Exact,Operating,Grinding,n/a,0.81117976,0.825,company reports,n/a,n/a,n/a,n/a,n/a,n/a,n/a,n/a,n/a,n/a,n/a,n/a,n/a,n/a,n/a,n/a,n/a,n/a,local,unknown,n/a
GACTBOL0008,Cercado,Oruro Department,Bolivia,BOL,68,Americas,Latin America and the Caribbean,-17.399962,-67.272688,Exact,Operating,Integrated,Dry,0.81117976,0.5,news,n/a,n/a,n/a,n/a,n/a,n/a,n/a,n/a,n/a,n/a,n/a,n/a,n/a,n/a,n/a,n/a,n/a,n/a,local,unknown,n/a
GACTBOL0009,Sucre,Departamento de Chuquisaca,Bolivia,BOL,68,Americas,Latin America and the Caribbean,-19.00701,-65.238766,Exact,Operating,Grinding,n/a,0.75647956,1.5,news,n/a,n/a,n/a,n/a,n/a,n/a,n/a,n/a,n/a,n/a,n/a,n/a,n/a,n/a,n/a,n/a,n/a,n/a,local,unknown,n/a
GACTBRA0001,Sete Lagoas,Minas Gerais,Brazil,BRA,76,Americas,Latin America and the Caribbean,-19.513164,-44.276622,Exact,Operating,Integrated,Dry,0.69501966,1,company reports,n/a,5055455832,Companhia Nacional de Cimento CNC,http://www.cimentonacional.com.br/page/institucional?grupo,5039800663,Brennand Cimentos,n/a,n/a,Private,n/a,n/a,n/a,n/a,n/a,n/a,n/a,n/a,n/a,local,unknown,n/a
GACTBRA0002,Pitimbu,Paraíba,Brazil,BRA,76,Americas,Latin America and the Caribbean,-7.477499,-34.844648,Exact,Operating,Grinding,n/a,0.77518547,1.5,company reports,n/a,5039800663,Brennand Cimentos,http://www.cimentonacional.com.br/page/institucional?grupo,5039800663,Brennand Cimentos,n/a,n/a,Private,n/a,n/a,n/a,n/a,n/a,n/a,n/a,n/a,n/a,local,limestone,n/a
GACTBRA0003,Macuco,Rio de Janeiro,Brazil,BRA,76,Americas,Latin America and the Caribbean,-21.978106,-42.287296,Exact,Operating,Grinding,n/a,0.69501966,1.4,news,1975,5066610363,CRH Brasil Participacoes SA,https://crhbrasil.com.br/?lang=en,4295874867,CRH PLC,n/a,549300MIDJNNTH068E74,Public,CRH,LSE,n/a,n/a,n/a,n/a,n/a,n/a,n/a,local,unknown,n/a
GACTBRA0004,Matozinhos,Minas Gerais,Brazil,BRA,76,Americas,Latin America and the Caribbean,-19.53878,-44.077607,Exact,Operating,Grinding,n/a,0.69501966,0.6,news,1959,5066610363,CRH Brasil Participacoes SA,https://crhbrasil.com.br/?lang=en,4295874867,CRH PLC,n/a,549300MIDJNNTH068E74,Public,CRH,LSE,n/a,n/a,n/a,n/a,n/a,n/a,n/a,local,unknown,n/a
GACTBRA0005,Santa Luzia,Minas Gerais,Brazil,BRA,76,Americas,Latin America and the Caribbean,-19.809336,-43.881205,Exact,Operating,Integrated,Wet,0.69501966,1.3,news,n/a,5066610363,CRH Brasil Participacoes SA,https://crhbrasil.com.br/?lang=en,4295874867,CRH PLC,n/a,549300MIDJNNTH068E74,Public,CRH,LSE,n/a,n/a,n/a,n/a,n/a,n/a,n/a,local,unknown,n/a
GACTBRA0006,Arcos,Minas Gerais,Brazil,BRA,76,Americas,Latin America and the Caribbean,-20.294322,-45.552264,Exact,Operating,Grinding,n/a,0.69501966,1.4,news,n/a,5066610363,CRH Brasil Participacoes SA,https://crhbrasil.com.br/?lang=en,4295874867,CRH PLC,n/a,549300MIDJNNTH068E74,Public,CRH,LSE,n/a,n/a,n/a,n/a,n/a,n/a,n/a,local,unknown,n/a
GACTBRA0007,Balsa Nova,Paraná,Brazil,BRA,76,Americas,Latin America and the Caribbean,-25.458029,-49.610131,Exact,Operating,Integrated,Wet,0.69501966,2.8,company website,1976,4296343407,Cia De Cimento Itambé,https://www.cimentoitambe.com.br/conheca-a-itambe/localizacao/,4296343407,Cia De Cimento Itambé,n/a,n/a,Private,n/a,n/a,n/a,n/a,n/a,n/a,n/a,n/a,n/a,local,unknown,n/a
GACTBRA0008,São Luís,Maranhão,Brazil,BRA,76,Americas,Latin America and the Caribbean,-2.65682,-44.306799,Exact,Operating,Integrated,Dry,0.77518547,0.5,company website,n/a,5037936049,Cimar Cimentos do Maranhão SA,http://www.cimentobravo.com.br/,5037936049,Cimar Cimentos do Maranhão SA,n/a,n/a,Private,n/a,n/a,n/a,n/a,n/a,n/a,n/a,n/a,n/a,local,limestone,n/a
GACTBRA0009,Cachoeiro de Itapemirim,Espírito Santo,Brazil,BRA,76,Americas,Latin America and the Caribbean,-20.780254,-41.118409,Exact,Operating,Integrated,Dry,0.69501966,0.8,news,n/a,5001211140,Itabira Agro Industrial SA,https://pt.wikipedia.org/wiki/Cimento_Nassau,n/a,Cimento Nassau,n/a,n/a,Private,n/a,n/a,n/a,n/a,n/a,n/a,n/a,n/a,n/a,local,unknown,n/a
GACTBRA0010,Ituaçu,Bahia,Brazil,BRA,76,Americas,Latin America and the Caribbean,-13.895437,-41.281472,Exact,Operating,Integrated,Wet,0.69501966,1.1,news,2012,4296309907,Itaguarana Agro Industrial SA,https://pt.wikipedia.org/wiki/Cimento_Nassau,n/a,Cimento Nassau,n/a,n/a,Private,n/a,n/a,n/a,n/a,n/a,n/a,n/a,n/a,n/a,local,unknown,n/a
GACTBRA0011,Nossa Senhora do Socorro,Sergipe,Brazil,BRA,76,Americas,Latin America and the Caribbean,-10.845763,-37.156458,Exact,Operating,Grinding,n/a,0.77518547,0.4,news,n/a,4296367505,Itaguassu Agro Industrial SA,https://pt.wikipedia.org/wiki/Cimento_Nassau,n/a,Cimento Nassau,n/a,n/a,Private,n/a,n/a,n/a,n/a,n/a,n/a,n/a,n/a,n/a,local,limestone,n/a
GACTBRA0012,Itaituba,Pará,Brazil,BRA,76,Americas,Latin America and the Caribbean,-4.321762,-56.219968,Exact,Operating,Integrated,Wet,0.45633984,0.9,news,n/a,5044522860,Itaituba Industria de Cimentos do Para SA,https://pt.wikipedia.org/wiki/Cimento_Nassau,n/a,Cimento Nassau,n/a,n/a,Private,n/a,n/a,n/a,n/a,n/a,n/a,n/a,n/a,n/a,local,limestone,n/a
GACTBRA0013,Goiana,Pernambuco,Brazil,BRA,76,Americas,Latin America and the Caribbean,-7.631111,-34.863279,Exact,Operating,Integrated,Dry,0.77518547,0.7,news,n/a,4296398916,Itapessoca Agro Industrial SA,https://pt.wikipedia.org/wiki/Cimento_Nassau,n/a,Cimento Nassau,n/a,n/a,Private,n/a,n/a,n/a,n/a,n/a,n/a,n/a,n/a,n/a,local,limestone,n/a
GACTBRA0014,Mossoró,Rio Grande do Norte,Brazil,BRA,76,Americas,Latin America and the Caribbean,-5.203661,-37.393063,Exact,Operating,Integrated,Dry,0.77518547,0.5,news,1970,4296398917,Itapetinga Agro Industrial SA,https://pt.wikipedia.org/wiki/Cimento_Nassau,n/a,Cimento Nassau,n/a,n/a,Private,n/a,n/a,n/a,n/a,n/a,n/a,n/a,n/a,n/a,local,limestone,n/a
GACTBRA0015,Codó,Maranhão,Brazil,BRA,76,Americas,Latin America and the Caribbean,-4.525562,-44.040922,Exact,Operating,Integrated,Dry,0.77518547,1.1,news,n/a,n/a,Itapicuru Agro Industrial SA,https://pt.wikipedia.org/wiki/Cimento_Nassau,n/a,Cimento Nassau,n/a,n/a,Private,n/a,n/a,n/a,n/a,n/a,n/a,n/a,n/a,n/a,local,limestone,n/a
GACTBRA0016,Fronteiras,State of Piauí,Brazil,BRA,76,Americas,Latin America and the Caribbean,-6.953261,-40.52013,Exact,Operating,Integrated,Dry,0.77518547,0.3,news,n/a,5044527450,Itapissuma SA,https://pt.wikipedia.org/wiki/Cimento_Nassau,n/a,Cimento Nassau,n/a,n/a,Private,n/a,n/a,n/a,n/a,n/a,n/a,n/a,n/a,n/a,local,limestone,n/a
GACTBRA0017,Manaus,Amazonas,Brazil,BRA,76,Americas,Latin America and the Caribbean,-3.090327,-59.915041,Exact,Operating,Integrated,Dry,0.45633984,1.2,news,n/a,4296398919,Itautinga Agro Industrial SA,https://pt.wikipedia.org/wiki/Cimento_Nassau,n/a,Cimento Nassau,n/a,n/a,Private,n/a,n/a,n/a,n/a,n/a,n/a,n/a,n/a,n/a,local,limestone,n/a
GACTBRA0018,Barbalha,Ceará,Brazil,BRA,76,Americas,Latin America and the Caribbean,-7.333684,-39.305561,Exact,Operating,Grinding,n/a,0.77518547,0.9,news,n/a,n/a,Itapui Barbalhense Industria de Cimentos SA,https://pt.wikipedia.org/wiki/Cimento_Nassau,n/a,Cimento Nassau,n/a,n/a,Private,n/a,n/a,n/a,n/a,n/a,n/a,n/a,n/a,n/a,local,limestone,n/a
GACTBRA0019,Capanema,Pará,Brazil,BRA,76,Americas,Latin America and the Caribbean,-1.215453,-47.188471,Exact,Operating,Grinding,n/a,0.77518547,1.2,news,1959,4296396052,Cibrasa Cimentos Do Brasil,https://pt.wikipedia.org/wiki/Cimento_Nassau,n/a,Cimento Nassau,n/a,n/a,Private,n/a,n/a,n/a,n/a,n/a,n/a,n/a,n/a,n/a,local,limestone,n/a
GACTBRA0020,Carandaí,Minas Gerais,Brazil,BRA,76,Americas,Latin America and the Caribbean,-20.900704,-43.818949,Exact,Operating,Integrated,Dry,0.69501966,1.2,news,1976,4296338783,Cimento Tupi SA,http://www.cimentotupi.com.br/cimentotupi/Portugues/detUnidades.php,4296338783,Cimento Tupi SA,n/a,n/a,Private,n/a,n/a,n/a,n/a,n/a,n/a,n/a,n/a,n/a,local,unknown,n/a
GACTBRA0021,Mogi das Cruzes,São Paulo,Brazil,BRA,76,Americas,Latin America and the Caribbean,-23.431022,-46.258214,Exact,Operating,Integrated,Wet,0.69501966,1.3,news,1998,4296338783,Cimento Tupi SA,http://www.cimentotupi.com.br/cimentotupi/Portugues/detUnidades.php,4296338783,Cimento Tupi SA,n/a,n/a,Private,n/a,n/a,n/a,n/a,n/a,n/a,n/a,n/a,n/a,local,unknown,n/a
GACTBRA0022,Volta Redonda,Rio de Janeiro,Brazil,BRA,76,Americas,Latin America and the Caribbean,-22.521633,-44.130826,Exact,Operating,Grinding,n/a,0.69501966,0.9,news,1952,4296338783,Cimento Tupi SA,http://www.cimentotupi.com.br/cimentotupi/Portugues/detUnidades.php,4296338783,Cimento Tupi SA,n/a,n/a,Private,n/a,n/a,n/a,n/a,n/a,n/a,n/a,n/a,n/a,local,unknown,n/a
GACTBRA0023,Quixeré,State of Ceará,Brazil,BRA,76,Americas,Latin America and the Caribbean,-5.042011,-37.773819,Exact,Operating,Integrated,Dry,0.77518547,0.7,news,n/a,5051762894,Companhia Industrial de Cimento Apodi,http://www.cimentoapodi.com.br/,5051762894,Companhia Industrial de Cimento Apodi,n/a,n/a,Private,n/a,n/a,n/a,n/a,n/a,n/a,n/a,n/a,n/a,local,limestone,n/a
GACTBRA0024,Caucaia,Ceará,Brazil,BRA,76,Americas,Latin America and the Caribbean,-3.667224,-38.854112,Exact,Operating,Integrated,Dry,0.77518547,1.5,news,n/a,5051762894,Companhia Industrial de Cimento Apodi,http://www.cimentoapodi.com.br/,5051762894,Companhia Industrial de Cimento Apodi,n/a,n/a,Private,n/a,n/a,n/a,n/a,n/a,n/a,n/a,n/a,n/a,local,limestone,n/a
GACTBRA0025,Arcos,Minas Gerais,Brazil,BRA,76,Americas,Latin America and the Caribbean,-20.31263,-45.583988,Exact,Operating,Grinding,n/a,0.69501966,1.6,news,n/a,5000353411,CSN Cimentos SA,http://www.csn.com.br/conteudo_eni.asp?idioma=1&conta=46&tipo=59654,4297320527,Companhia Siderurgica Nacional,n/a,529900K40TEND42S0T46,Public,CSNA3,SAO,n/a,n/a,n/a,n/a,n/a,n/a,n/a,local,unknown,n/a
GACTBRA0026,Volta Redonda,Rio de Janeiro,Brazil,BRA,76,Americas,Latin America and the Caribbean,-22.508931,-44.102262,Exact,Operating,Grinding,n/a,0.69501966,1.2,news,2009,5000353411,CSN Cimentos SA,http://www.csn.com.br/conteudo_eni.asp?idioma=1&conta=46&tipo=59654,4297320527,Companhia Siderurgica Nacional,n/a,529900K40TEND42S0T46,Public,CSNA3,SAO,n/a,n/a,n/a,n/a,n/a,n/a,n/a,local,unknown,n/a
GACTBRA0027,Lagoa Santa,Minas Gerais,Brazil,BRA,76,Americas,Latin America and the Caribbean,-19.682542,-43.925692,Exact,Operating,Grinding,n/a,0.69501966,1.4,news,1976,4296767226,Empresa de Cimentos Liz SA,http://www.cimentosliz.com.br/empresa/perfil,4296767226,Empresa de Cimentos Liz SA,n/a,n/a,Private,n/a,n/a,n/a,n/a,n/a,n/a,n/a,n/a,n/a,local,unknown,n/a
GACTBRA0028,Apiaí,São Paulo,Brazil,BRA,76,Americas,Latin America and the Caribbean,-24.518867,-48.856014,Exact,Operating,Grinding,n/a,0.69501966,0.5,news,n/a,4296733575,InterCement Brasil SA,http://brasil.intercement.com/unidades,5035421084,InterCement Participacoes SA,n/a,n/a,Private,n/a,n/a,n/a,n/a,n/a,n/a,n/a,n/a,n/a,local,unknown,n/a
GACTBRA0029,Bodoquena,Mato Grosso do Sul,Brazil,BRA,76,Americas,Latin America and the Caribbean,-20.473665,-56.72942,Exact,Operating,Integrated,Dry,0.4508908,1.5,news,n/a,4296733575,InterCement Brasil SA,http://brasil.intercement.com/unidades,5035421084,InterCement Participacoes SA,n/a,n/a,Private,n/a,n/a,n/a,n/a,n/a,n/a,n/a,n/a,n/a,local,unknown,n/a
GACTBRA0030,Cajati,São Paulo,Brazil,BRA,76,Americas,Latin America and the Caribbean,-24.708727,-48.117464,Exact,Operating,Grinding,n/a,0.69501966,1.1,news,1972,4296733575,InterCement Brasil SA,http://brasil.intercement.com/unidades,5035421084,InterCement Participacoes SA,n/a,n/a,Private,n/a,n/a,n/a,n/a,n/a,n/a,n/a,n/a,n/a,local,unknown,n/a
GACTBRA0031,Campo Formoso,Bahia,Brazil,BRA,76,Americas,Latin America and the Caribbean,-10.518039,-40.330504,Exact,Operating,Grinding,n/a,0.77518547,0.6,news,n/a,4296733575,InterCement Brasil SA,http://brasil.intercement.com/unidades,5035421084,InterCement Participacoes SA,n/a,n/a,Private,n/a,n/a,n/a,n/a,n/a,n/a,n/a,n/a,n/a,local,limestone,n/a
GACTBRA0032,Cezarina,Goiás,Brazil,BRA,76,Americas,Latin America and the Caribbean,-17.010255,-49.781312,Exact,Operating,Integrated,Dry,0.69501966,1.6,news,n/a,4296733575,InterCement Brasil SA,http://brasil.intercement.com/unidades,5035421084,InterCement Participacoes SA,n/a,n/a,Private,n/a,n/a,n/a,n/a,n/a,n/a,n/a,n/a,n/a,local,unknown,n/a
GACTBRA0033,Ijaci,State of Minas Gerais,Brazil,BRA,76,Americas,Latin America and the Caribbean,-21.194785,-44.938742,Exact,Operating,Grinding,n/a,0.69501966,1.9,news,n/a,4296733575,InterCement Brasil SA,http://brasil.intercement.com/unidades,5035421084,InterCement Participacoes SA,n/a,n/a,Private,n/a,n/a,n/a,n/a,n/a,n/a,n/a,n/a,n/a,local,unknown,n/a
GACTBRA0034,João Pessoa,Paraíba,Brazil,BRA,76,Americas,Latin America and the Caribbean,-7.128394,-34.894188,Exact,Operating,Grinding,n/a,0.77518547,1.1,news,1933,4296733575,InterCement Brasil SA,http://brasil.intercement.com/unidades,5035421084,InterCement Participacoes SA,n/a,n/a,Private,n/a,n/a,n/a,n/a,n/a,n/a,n/a,n/a,n/a,local,limestone,n/a
GACTBRA0035,Pedro Leopoldo,Minas Gerais,Brazil,BRA,76,Americas,Latin America and the Caribbean,-19.627181,-44.025928,Exact,Operating,Grinding,n/a,0.69501966,2,news,n/a,4296733575,InterCement Brasil SA,http://brasil.intercement.com/unidades,5035421084,InterCement Participacoes SA,n/a,n/a,Private,n/a,n/a,n/a,n/a,n/a,n/a,n/a,n/a,n/a,local,unknown,n/a
GACTBRA0036,São Miguel dos Campos,Alagoas,Brazil,BRA,76,Americas,Latin America and the Caribbean,-9.762307,-36.151178,Exact,Operating,Integrated,Dry,0.77518547,1.5,news,n/a,4296733575,InterCement Brasil SA,http://brasil.intercement.com/unidades,5035421084,InterCement Participacoes SA,n/a,n/a,Private,n/a,n/a,n/a,n/a,n/a,n/a,n/a,n/a,n/a,local,limestone,n/a
GACTBRA0037,Candiota,Rio Grande do Sul,Brazil,BRA,76,Americas,Latin America and the Caribbean,-31.585375,-53.67145,Exact,Operating,Grinding,n/a,1.0000001,1.8,news,n/a,4296733575,InterCement Brasil SA,http://brasil.intercement.com/unidades,5035421084,InterCement Participacoes SA,n/a,n/a,Private,n/a,n/a,n/a,n/a,n/a,n/a,n/a,n/a,n/a,local,unknown,n/a
GACTBRA0038,Brumado,Bahia,Brazil,BRA,76,Americas,Latin America and the Caribbean,-14.197803,-41.59798,Exact,Operating,Integrated,Dry,0.69501966,2,news,n/a,4296733575,InterCement Brasil SA,http://brasil.intercement.com/unidades,5035421084,InterCement Participacoes SA,n/a,n/a,Private,n/a,n/a,n/a,n/a,n/a,n/a,n/a,n/a,n/a,local,unknown,n/a
GACTBRA0039,Cubatão,São Paulo,Brazil,BRA,76,Americas,Latin America and the Caribbean,-23.826511,-46.364944,Exact,Operating,Integrated,Wet,0.69501966,1.5,news,n/a,4296733575,InterCement Brasil SA,http://brasil.intercement.com/unidades,5035421084,InterCement Participacoes SA,n/a,n/a,Private,n/a,n/a,n/a,n/a,n/a,n/a,n/a,n/a,n/a,local,unknown,n/a
GACTBRA0040,Jacareí,São Paulo,Brazil,BRA,76,Americas,Latin America and the Caribbean,-23.272361,-46.059585,Exact,Operating,Integrated,Wet,0.69501966,0.7,news,n/a,4296733575,InterCement Brasil SA,http://brasil.intercement.com/unidades,5035421084,InterCement Participacoes SA,n/a,n/a,Private,n/a,n/a,n/a,n/a,n/a,n/a,n/a,n/a,n/a,local,unknown,n/a
GACTBRA0041,Nova Santa Rita,Rio Grande do Sul,Brazil,BRA,76,Americas,Latin America and the Caribbean,-29.925521,-51.280111,Exact,Operating,Integrated,Dry,1.0000001,0.5,news,1952,4296733575,InterCement Brasil SA,http://brasil.intercement.com/unidades,5035421084,InterCement Participacoes SA,n/a,n/a,Private,n/a,n/a,n/a,n/a,n/a,n/a,n/a,n/a,n/a,local,unknown,n/a
GACTBRA0042,Santana do Paraíso,Minas Gerais,Brazil,BRA,76,Americas,Latin America and the Caribbean,-19.475578,-42.481219,Exact,Operating,Integrated,Wet,0.69501966,0.2,news,n/a,4296733575,InterCement Brasil SA,http://brasil.intercement.com/unidades,5035421084,InterCement Participacoes SA,n/a,n/a,Private,n/a,n/a,n/a,n/a,n/a,n/a,n/a,n/a,n/a,local,unknown,n/a
GACTBRA0043,Salvador,Bahia,Brazil,BRA,76,Americas,Latin America and the Caribbean,-12.960167,-38.475391,Exact,Operating,Grinding,n/a,0.69501966,0.7,news,n/a,4296733575,InterCement Brasil SA,http://brasil.intercement.com/unidades,5035421084,InterCement Participacoes SA,n/a,n/a,Private,n/a,n/a,n/a,n/a,n/a,n/a,n/a,n/a,n/a,local,unknown,n/a
GACTBRA0044,Barroso,Minas Gerais,Brazil,BRA,76,Americas,Latin America and the Caribbean,-21.18078,-43.981104,Exact,Operating,Grinding,n/a,0.69501966,1.2,news,1955,5000033575,LafargeHolcim Brasil SA,https://www.lafargeholcim.com.br/onde-operamos,4295890620,LafargeHolcim Ltd,n/a,529900EHPFPYHV6IQO98,Public,LHN,SWX,n/a,n/a,n/a,n/a,n/a,n/a,n/a,local,unknown,n/a
GACTBRA0045,Pedro Leopoldo,Minas Gerais,Brazil,BRA,76,Americas,Latin America and the Caribbean,-19.607266,-44.058174,Exact,Operating,Grinding,n/a,0.69501966,1.6,news,1973,5000033575,LafargeHolcim Brasil SA,https://www.lafargeholcim.com.br/onde-operamos,4295890620,LafargeHolcim Ltd,n/a,529900EHPFPYHV6IQO98,Public,LHN,SWX,n/a,n/a,n/a,n/a,n/a,n/a,n/a,local,unknown,n/a
GACTBRA0046,Cantagalo,Rio de Janeiro,Brazil,BRA,76,Americas,Latin America and the Caribbean,-21.941689,-42.271287,Exact,Operating,Grinding,n/a,0.69501966,1.5,news,1981,5000033575,LafargeHolcim Brasil SA,https://www.lafargeholcim.com.br/onde-operamos,4295890620,LafargeHolcim Ltd,n/a,529900EHPFPYHV6IQO98,Public,LHN,SWX,n/a,n/a,n/a,n/a,n/a,n/a,n/a,local,unknown,n/a
GACTBRA0047,Cocalzinho de Goiás,Goiás,Brazil,BRA,76,Americas,Latin America and the Caribbean,-15.789679,-48.770272,Exact,Operating,Integrated,Wet,0.69501966,2.5,news,n/a,5000033575,LafargeHolcim Brasil SA,https://www.lafargeholcim.com.br/onde-operamos,4295890620,LafargeHolcim Ltd,n/a,529900EHPFPYHV6IQO98,Public,LHN,SWX,n/a,n/a,n/a,n/a,n/a,n/a,n/a,local,unknown,n/a
GACTBRA0048,Itapeva,São Paulo,Brazil,BRA,76,Americas,Latin America and the Caribbean,-23.988499,-48.917417,Exact,Operating,Grinding,n/a,0.69501966,1.5,news,n/a,5000033575,LafargeHolcim Brasil SA,https://www.lafargeholcim.com.br/onde-operamos,4295890620,LafargeHolcim Ltd,n/a,529900EHPFPYHV6IQO98,Public,LHN,SWX,n/a,n/a,n/a,n/a,n/a,n/a,n/a,local,unknown,n/a
GACTBRA0049,Montes Claros,Minas Gerais,Brazil,BRA,76,Americas,Latin America and the Caribbean,-16.680168,-43.883034,Exact,Operating,Integrated,Dry,0.69501966,1.2,news,1959,5000033575,LafargeHolcim Brasil SA,https://www.lafargeholcim.com.br/onde-operamos,4295890620,LafargeHolcim Ltd,n/a,529900EHPFPYHV6IQO98,Public,LHN,SWX,n/a,n/a,n/a,n/a,n/a,n/a,n/a,local,unknown,n/a
GACTBRA0050,Caaporã,Paraíba,Brazil,BRA,76,Americas,Latin America and the Caribbean,-7.529795,-34.865204,Exact,Operating,Grinding,n/a,0.77518547,0.05,news,1988,5000033575,LafargeHolcim Brasil SA,https://www.lafargeholcim.com.br/onde-operamos,4295890620,LafargeHolcim Ltd,n/a,529900EHPFPYHV6IQO98,Public,LHN,SWX,n/a,n/a,n/a,n/a,n/a,n/a,n/a,local,limestone,n/a
GACTBRA0051,Serra,Espírito Santo,Brazil,BRA,76,Americas,Latin America and the Caribbean,-20.189254,-40.249573,Exact,Operating,Integrated,Dry,0.69501966,0.2,news,n/a,5000033575,LafargeHolcim Brasil SA,https://www.lafargeholcim.com.br/onde-operamos,4295890620,LafargeHolcim Ltd,n/a,529900EHPFPYHV6IQO98,Public,LHN,SWX,n/a,n/a,n/a,n/a,n/a,n/a,n/a,local,unknown,n/a
GACTBRA0052,Barueri,São Paulo,Brazil,BRA,76,Americas,Latin America and the Caribbean,-23.496389,-46.917941,Exact,Operating,Grinding,n/a,0.69501966,1.1,news,n/a,5000033575,LafargeHolcim Brasil SA,https://www.lafargeholcim.com.br/onde-operamos,4295890620,LafargeHolcim Ltd,n/a,529900EHPFPYHV6IQO98,Public,LHN,SWX,n/a,n/a,n/a,n/a,n/a,n/a,n/a,local,unknown,n/a
GACTBRA0053,Rio de Janeiro,Rio de Janeiro,Brazil,BRA,76,Americas,Latin America and the Caribbean,-22.889141,-43.655675,Exact,Operating,Integrated,Wet,0.69501966,0.9,news,n/a,5000033575,LafargeHolcim Brasil SA,https://www.lafargeholcim.com.br/onde-operamos,4295890620,LafargeHolcim Ltd,n/a,529900EHPFPYHV6IQO98,Public,LHN,SWX,n/a,n/a,n/a,n/a,n/a,n/a,n/a,local,unknown,n/a
GACTBRA0054,Candeias,Bahia,Brazil,BRA,76,Americas,Latin America and the Caribbean,-12.720233,-38.481778,Exact,Operating,Integrated,Dry,0.69501966,0.7,news,n/a,5000033575,LafargeHolcim Brasil SA,https://www.lafargeholcim.com.br/onde-operamos,4295890620,LafargeHolcim Ltd,n/a,529900EHPFPYHV6IQO98,Public,LHN,SWX,n/a,n/a,n/a,n/a,n/a,n/a,n/a,local,unknown,n/a
GACTBRA0055,Cachoeiro de Itapemirim,Espírito Santo,Brazil,BRA,76,Americas,Latin America and the Caribbean,-20.729127,-41.1287,Exact,Operating,Integrated,Wet,0.69501966,0.19,company website,n/a,n/a,PROcim,http://www.grupoprovale.com/en/about-us,5038033096,Provale Holding SA,n/a,n/a,Private,n/a,n/a,n/a,n/a,n/a,n/a,n/a,n/a,n/a,local,unknown,n/a
GACTBRA0056,Adrianópolis,Paraná,Brazil,BRA,76,Americas,Latin America and the Caribbean,-24.669459,-48.979959,Exact,Operating,Grinding,n/a,0.69501966,1.8,company website,2015,5036893294,Supremo Cimentos SA,http://www.secil-group.com/a-secil/a-secil-no-mundo/?lang=en#secil_no_mundo_tunisia_en,4295886745,Secil Companhia Geral de Cal e Cimento SA,n/a,5493002X2CCY60HWCU94,Private,n/a,n/a,n/a,n/a,n/a,n/a,n/a,n/a,n/a,local,unknown,n/a
GACTBRA0057,Pomerode,Santa Catarina,Brazil,BRA,76,Americas,Latin America and the Caribbean,-26.81867,-49.156976,Exact,Operating,Integrated,Wet,0.69501966,0.4,company website,n/a,5036893294,Supremo Cimentos SA,http://www.secil-group.com/a-secil/a-secil-no-mundo/?lang=en#secil_no_mundo_tunisia_en,4295886745,Secil Companhia Geral de Cal e Cimento SA,n/a,5493002X2CCY60HWCU94,Private,n/a,n/a,n/a,n/a,n/a,n/a,n/a,n/a,n/a,local,unknown,n/a
GACTBRA0058,Brasília,Distrito Federal,Brazil,BRA,76,Americas,Latin America and the Caribbean,-15.570003,-47.854243,Exact,Operating,Integrated,Dry,0.69501966,1.6,company reports,1960,4297793174,Ciplan Cimento Planalto SA,http://www.ciplan.com.br/pt-br/quem-somos,4295868605,Vicat SA,n/a,9695009YI1863TOVDP79,Public,VCT,PAR,n/a,n/a,n/a,n/a,n/a,n/a,n/a,local,unknown,n/a
GACTBRA0059,Baraúna,Rio Grande do Norte,Brazil,BRA,76,Americas,Latin America and the Caribbean,-5.072994,-37.716134,Exact,Operating,Integrated,Dry,0.77518547,0.1,news,2012,4298068783,Mizu SA,http://mizu.com.br/Factory,5000075361,Votorantim SA,n/a,5493009RIHSE12DQ0J28,Private,n/a,n/a,n/a,n/a,n/a,n/a,n/a,n/a,n/a,local,limestone,n/a
GACTBRA0060,Mogi das Cruzes,São Paulo,Brazil,BRA,76,Americas,Latin America and the Caribbean,-23.442724,-46.242309,Exact,Operating,Integrated,Dry,0.69501966,0.4,news,2005,4298068783,Mizu SA,http://mizu.com.br/Factory?post=395,5000075361,Votorantim SA,n/a,5493009RIHSE12DQ0J28,Private,n/a,n/a,n/a,n/a,n/a,n/a,n/a,n/a,n/a,local,unknown,n/a
GACTBRA0061,Pacatuba,Sergipe,Brazil,BRA,76,Americas,Latin America and the Caribbean,-10.415826,-36.698658,Exact,Operating,Integrated,Wet,0.77518547,0.5,news,2004,4298068783,Mizu SA,http://mizu.com.br/Factory?post=407,5000075361,Votorantim SA,n/a,5493009RIHSE12DQ0J28,Private,n/a,n/a,n/a,n/a,n/a,n/a,n/a,n/a,n/a,local,limestone,n/a
GACTBRA0062,Serra,Espírito Santo,Brazil,BRA,76,Americas,Latin America and the Caribbean,-20.261801,-40.234002,Exact,Operating,Integrated,Dry,0.69501966,1.3,news,n/a,4298068783,Mizu SA,http://mizu.com.br/Factory?post=393,5000075361,Votorantim SA,n/a,5493009RIHSE12DQ0J28,Private,n/a,n/a,n/a,n/a,n/a,n/a,n/a,n/a,n/a,local,unknown,n/a
GACTBRA0063,Cuiabá,State of Mato Grosso,Brazil,BRA,76,Americas,Latin America and the Caribbean,-15.333379,-56.137768,Exact,Operating,Integrated,Wet,1,1.8,news,2013,4296874764,Votorantim Cimentos SA,https://www.votorantimcimentos.com.br/institucional/unidades/,5000075361,Votorantim SA,n/a,5493009RIHSE12DQ0J28,Private,n/a,n/a,n/a,n/a,n/a,n/a,n/a,n/a,n/a,local,"limestone, clay",n/a
GACTBRA0064,Cantagalo,Rio de Janeiro,Brazil,BRA,76,Americas,Latin America and the Caribbean,-21.912475,-42.262257,Exact,Operating,Integrated,Wet,0.69501966,2.5,news,1970,4296874764,Votorantim Cimentos SA,https://www.votorantimcimentos.com.br/institucional/unidades/,5000075361,Votorantim SA,n/a,5493009RIHSE12DQ0J28,Private,n/a,n/a,n/a,n/a,n/a,n/a,n/a,n/a,n/a,local,unknown,n/a
GACTBRA0065,Corumbá,Mato Grosso do Sul,Brazil,BRA,76,Americas,Latin America and the Caribbean,-19.00333,-57.62406,Exact,Operating,Grinding,n/a,1,2.4,news,1970,4296874764,Votorantim Cimentos SA,https://www.votorantimcimentos.com.br/institucional/unidades/,5000075361,Votorantim SA,n/a,5493009RIHSE12DQ0J28,Private,n/a,n/a,n/a,n/a,n/a,n/a,n/a,n/a,n/a,local,"limestone, clay",n/a
GACTBRA0066,Edealina,Goiás,Brazil,BRA,76,Americas,Latin America and the Caribbean,-17.258058,-49.786396,Exact,Operating,Integrated,Dry,0.69501966,1.5,news,n/a,4296874764,Votorantim Cimentos SA,https://www.votorantimcimentos.com.br/institucional/unidades/,5000075361,Votorantim SA,n/a,5493009RIHSE12DQ0J28,Private,n/a,n/a,n/a,n/a,n/a,n/a,n/a,n/a,n/a,local,unknown,n/a
GACTBRA0067,Itaú de Minas,Minas Gerais,Brazil,BRA,76,Americas,Latin America and the Caribbean,-20.764215,-46.769658,Exact,Operating,Grinding,n/a,0.69501966,1.9,news,n/a,4296874764,Votorantim Cimentos SA,https://www.votorantimcimentos.com.br/institucional/unidades/,5000075361,Votorantim SA,n/a,5493009RIHSE12DQ0J28,Private,n/a,n/a,n/a,n/a,n/a,n/a,n/a,n/a,n/a,local,unknown,n/a
GACTBRA0068,Laranjeiras,Sergipe,Brazil,BRA,76,Americas,Latin America and the Caribbean,-10.82468,-37.165,Exact,Operating,Grinding,n/a,0.77518547,1.8,news,1985,4296874764,Votorantim Cimentos SA,https://www.votorantimcimentos.com.br/institucional/unidades/,5000075361,Votorantim SA,n/a,5493009RIHSE12DQ0J28,Private,n/a,n/a,n/a,n/a,n/a,n/a,n/a,n/a,n/a,local,limestone,n/a
GACTBRA0069,Nobres,Mato Grosso,Brazil,BRA,76,Americas,Latin America and the Caribbean,-14.644156,-56.265285,Exact,Operating,Integrated,Wet,1,0.2,news,n/a,4296874764,Votorantim Cimentos SA,https://www.votorantimcimentos.com.br/institucional/unidades/,5000075361,Votorantim SA,n/a,5493009RIHSE12DQ0J28,Private,n/a,n/a,n/a,n/a,n/a,n/a,n/a,n/a,n/a,local,"limestone, clay",n/a
GACTBRA0070,Pinheiro Machado,Rio Grande do Sul,Brazil,BRA,76,Americas,Latin America and the Caribbean,-31.513208,-53.559279,Exact,Operating,Integrated,Wet,1.0000001,2.4,news,n/a,4296874764,Votorantim Cimentos SA,https://www.votorantimcimentos.com.br/unidade/pinheiro-machado-rs/,5000075361,Votorantim SA,n/a,5493009RIHSE12DQ0J28,Private,n/a,n/a,n/a,n/a,n/a,n/a,n/a,n/a,n/a,local,unknown,n/a
GACTBRA0071,Primavera,Pará,Brazil,BRA,76,Americas,Latin America and the Caribbean,-0.981148,-47.116844,Exact,Operating,Grinding,n/a,0.77518547,1.6,news,n/a,4296874764,Votorantim Cimentos SA,https://www.votorantimcimentos.com.br/institucional/unidades/,5000075361,Votorantim SA,n/a,5493009RIHSE12DQ0J28,Private,n/a,n/a,n/a,n/a,n/a,n/a,n/a,n/a,n/a,local,limestone,n/a
GACTBRA0072,Rio Branco do Sul,Paraná,Brazil,BRA,76,Americas,Latin America and the Caribbean,-25.192401,-49.325757,Exact,Operating,Grinding,n/a,0.69501966,1.5,news,1953,4296874764,Votorantim Cimentos SA,https://www.votorantimcimentos.com.br/institucional/unidades/,5000075361,Votorantim SA,n/a,5493009RIHSE12DQ0J28,Private,n/a,n/a,n/a,n/a,n/a,n/a,n/a,n/a,n/a,local,unknown,n/a
GACTBRA0073,Salto de Pirapora,São Paulo,Brazil,BRA,76,Americas,Latin America and the Caribbean,-23.629579,-47.499136,Exact,Operating,Integrated,Dry,0.69501966,1.7,news,n/a,4296874764,Votorantim Cimentos SA,https://www.votorantimcimentos.com.br/institucional/unidades/,5000075361,Votorantim SA,n/a,5493009RIHSE12DQ0J28,Private,n/a,n/a,n/a,n/a,n/a,n/a,n/a,n/a,n/a,local,unknown,n/a
GACTBRA0074,Brasília,Distrito Federal,Brazil,BRA,76,Americas,Latin America and the Caribbean,-15.586387,-47.874042,Exact,Operating,Integrated,Wet,0.69501966,1.6,news,n/a,4296874764,Votorantim Cimentos SA,https://www.votorantimcimentos.com.br/institucional/unidades/,5000075361,Votorantim SA,n/a,5493009RIHSE12DQ0J28,Private,n/a,n/a,n/a,n/a,n/a,n/a,n/a,n/a,n/a,local,unknown,n/a
GACTBRA0075,Sobral,Ceará,Brazil,BRA,76,Americas,Latin America and the Caribbean,-3.686432,-40.373895,Exact,Operating,Grinding,n/a,0.77518547,1.5,news,1968,4296874764,Votorantim Cimentos SA,https://www.votorantimcimentos.com.br/institucional/unidades/,5000075361,Votorantim SA,n/a,5493009RIHSE12DQ0J28,Private,n/a,n/a,n/a,n/a,n/a,n/a,n/a,n/a,n/a,local,limestone,n/a
GACTBRA0076,Votorantim,São Paulo,Brazil,BRA,76,Americas,Latin America and the Caribbean,-23.593912,-47.436719,Exact,Operating,Grinding,n/a,0.69501966,1.4,news,1936,4296874764,Votorantim Cimentos SA,https://www.votorantimcimentos.com.br/institucional/unidades/,5000075361,Votorantim SA,n/a,5493009RIHSE12DQ0J28,Private,n/a,n/a,n/a,n/a,n/a,n/a,n/a,n/a,n/a,local,unknown,n/a
GACTBRA0077,Vidal Ramos,Santa Catarina,Brazil,BRA,76,Americas,Latin America and the Caribbean,-27.359219,-49.342572,Exact,Operating,Grinding,n/a,0.69501966,1.3,news,2011,4296874764,Votorantim Cimentos SA,https://www.votorantimcimentos.com.br/institucional/unidades/,5000075361,Votorantim SA,n/a,5493009RIHSE12DQ0J28,Private,n/a,n/a,n/a,n/a,n/a,n/a,n/a,n/a,n/a,local,unknown,n/a
GACTBRA0078,Xambioá,State of Tocantins,Brazil,BRA,76,Americas,Latin America and the Caribbean,-6.433062,-48.428327,Exact,Operating,Integrated,Dry,0.45633984,1.2,news,2009,4296874764,Votorantim Cimentos SA,https://www.votorantimcimentos.com.br/institucional/unidades/,5000075361,Votorantim SA,n/a,5493009RIHSE12DQ0J28,Private,n/a,n/a,n/a,n/a,n/a,n/a,n/a,n/a,n/a,local,limestone,n/a
GACTBRA0079,Rio de Janeiro,Rio de Janeiro,Brazil,BRA,76,Americas,Latin America and the Caribbean,-22.859648,-43.573563,Exact,Operating,Integrated,Wet,0.69501966,1.1,news,2010,4298068783,Mizu SA,http://mizu.com.br/Factory?post=394,5000075361,Votorantim SA,n/a,5493009RIHSE12DQ0J28,Private,n/a,n/a,n/a,n/a,n/a,n/a,n/a,n/a,n/a,local,unknown,n/a
GACTBRA0080,Cubatão,São Paulo,Brazil,BRA,76,Americas,Latin America and the Caribbean,-23.848375,-46.391784,Exact,Operating,Integrated,Wet,0.69501966,0.9,news,n/a,4296874764,Votorantim Cimentos SA,https://www.votorantimcimentos.com.br/unidade/unidade-cubatao/,5000075361,Votorantim SA,n/a,5493009RIHSE12DQ0J28,Private,n/a,n/a,n/a,n/a,n/a,n/a,n/a,n/a,n/a,local,unknown,n/a
GACTBRA0081,Imbituba,Santa Catarina,Brazil,BRA,76,Americas,Latin America and the Caribbean,-28.211548,-48.683798,Exact,Operating,Grinding,n/a,0.69501966,1.3,news,2011,4296874764,Votorantim Cimentos SA,https://www.votorantimcimentos.com.br/institucional/unidades/,5000075361,Votorantim SA,n/a,5493009RIHSE12DQ0J28,Private,n/a,n/a,n/a,n/a,n/a,n/a,n/a,n/a,n/a,local,unknown,n/a
GACTBRA0082,Itajaí,Santa Catarina,Brazil,BRA,76,Americas,Latin America and the Caribbean,-26.879224,-48.714877,Exact,Operating,Integrated,Wet,0.69501966,0.3,news,1940,4296874764,Votorantim Cimentos SA,https://www.votorantimcimentos.com.br/institucional/unidades/,5000075361,Votorantim SA,n/a,5493009RIHSE12DQ0J28,Private,n/a,n/a,n/a,n/a,n/a,n/a,n/a,n/a,n/a,local,unknown,n/a
GACTBRA0083,Caucaia,Ceará,Brazil,BRA,76,Americas,Latin America and the Caribbean,-3.653183,-38.854175,Exact,Operating,Integrated,Dry,0.77518547,2.5,news,2009,4296874764,Votorantim Cimentos SA,https://www.votorantimcimentos.com.br/noticia/vamos-investir-r-200-milhoes-na-ampliacao-da-nossa-fabrica-em-pecem-no-ceara/,5000075361,Votorantim SA,n/a,5493009RIHSE12DQ0J28,Private,n/a,n/a,n/a,n/a,n/a,n/a,n/a,n/a,n/a,local,limestone,n/a
GACTBRA0084,Porto Velho,Rondônia,Brazil,BRA,76,Americas,Latin America and the Caribbean,-8.796953,-63.768628,Exact,Operating,Integrated,Wet,1.0000002,0.4,news,n/a,4296874764,Votorantim Cimentos SA,https://www.votorantimcimentos.com.br/institucional/unidades/,5000075361,Votorantim SA,n/a,5493009RIHSE12DQ0J28,Private,n/a,n/a,n/a,n/a,n/a,n/a,n/a,n/a,n/a,local,"limestone, clay",n/a
GACTBRA0085,Paulista,Pernambuco,Brazil,BRA,76,Americas,Latin America and the Caribbean,-7.87415,-34.851998,Exact,Operating,Integrated,Wet,0.77518547,0.6,news,1942,4296874764,Votorantim Cimentos SA,https://www.votorantimcimentos.com.br/institucional/unidades/,5000075361,Votorantim SA,n/a,5493009RIHSE12DQ0J28,Private,n/a,n/a,n/a,n/a,n/a,n/a,n/a,n/a,n/a,local,limestone,n/a
GACTBRA0086,São Luís,Maranhão,Brazil,BRA,76,Americas,Latin America and the Caribbean,-2.636728,-44.310087,Exact,Operating,Integrated,Dry,0.77518547,2.2,news,2011,4296874764,Votorantim Cimentos SA,https://www.votorantimcimentos.com.br/institucional/unidades/,5000075361,Votorantim SA,n/a,5493009RIHSE12DQ0J28,Private,n/a,n/a,n/a,n/a,n/a,n/a,n/a,n/a,n/a,local,limestone,n/a
GACTBRA0087,Rio de Janeiro,Rio de Janeiro,Brazil,BRA,76,Americas,Latin America and the Caribbean,-22.915294,-43.735999,Exact,Operating,Integrated,Dry,0.69501966,1.5,news,2011,4296874764,Votorantim Cimentos SA,https://www.votorantimcimentos.com.br/unidade/unidade-santa-cruz-sepetiba/,5000075361,Votorantim SA,n/a,5493009RIHSE12DQ0J28,Private,n/a,n/a,n/a,n/a,n/a,n/a,n/a,n/a,n/a,local,unknown,n/a
GACTBRA0088,Volta Redonda,Rio de Janeiro,Brazil,BRA,76,Americas,Latin America and the Caribbean,-22.488653,-44.048268,Exact,Operating,Integrated,Dry,0.69501966,0.1,news,n/a,4296874764,Votorantim Cimentos SA,https://www.votorantimcimentos.com.br/unidade/unidade-volta-redonda/,5000075361,Votorantim SA,n/a,5493009RIHSE12DQ0J28,Private,n/a,n/a,n/a,n/a,n/a,n/a,n/a,n/a,n/a,local,unknown,n/a
GACTBRA0089,Matozinhos,Minas Gerais,Brazil,BRA,76,Americas,Latin America and the Caribbean,-19.582194,-44.054817,Exact,Operating,Grinding,n/a,0.69501966,1.1,news,1997,4298068783,Mizu SA,http://mizu.com.br/Factory?post=412,5000075361,Votorantim SA,n/a,5493009RIHSE12DQ0J28,Private,n/a,n/a,n/a,n/a,n/a,n/a,n/a,n/a,n/a,local,unknown,n/a
GACTBRA0090,Manaus,Amazonas,Brazil,BRA,76,Americas,Latin America and the Caribbean,-3.148527,-59.97014,Exact,Operating,Integrated,Dry,0.45633984,1.5,news,2014,4298068783,Mizu SA,http://mizu.com.br/Factory?post=390,5000075361,Votorantim SA,n/a,5493009RIHSE12DQ0J28,Private,n/a,n/a,n/a,n/a,n/a,n/a,n/a,n/a,n/a,local,limestone,n/a
GACTBRB0001,Checker Hall,Saint Lucy,Barbados,BRB,52,Americas,Latin America and the Caribbean,13.287233,-59.647826,Exact,Operating,Integrated,Dry,0.8225464,0.6,news,n/a,n/a,n/a,n/a,n/a,n/a,n/a,n/a,n/a,n/a,n/a,n/a,n/a,n/a,n/a,n/a,n/a,n/a,local,limestone,n/a
GACTBRN0001,Mukim Serasa,Daerah Brunei-Muara,Brunei Darussalam,BRN,96,Asia,South-eastern Asia,5.012333,115.064836,Exact,Operating,Integrated,Dry,1,0.5,company reports,1996,4296791822,Butra HeidelbergCement SDN Bhd,http://www.bruneicement.com/about-us/history.htm,4295868961,HeidelbergCement AG,n/a,LZ2C6E0W5W7LQMX5ZI37,Public,HEI,GER,n/a,n/a,n/a,n/a,n/a,n/a,n/a,hybrid,limestone,clinker
GACTBTN0001,Menchu,Samdrup Jongkhar,Bhutan,BTN,64,Asia,Southern Asia,26.872676,91.232077,Exact,Operating,Integrated,Wet,0.55586195,1.3,company reports,n/a,n/a,n/a,n/a,n/a,n/a,n/a,n/a,n/a,n/a,n/a,n/a,n/a,n/a,n/a,n/a,n/a,n/a,local,unknown,n/a
GACTBTN0002,Gomtu,Samtse,Bhutan,BTN,64,Asia,Southern Asia,26.816862,89.188009,Exact,Operating,Integrated,Dry,0.7359518,0.375,company reports,n/a,n/a,n/a,n/a,n/a,n/a,n/a,n/a,n/a,n/a,n/a,n/a,n/a,n/a,n/a,n/a,n/a,n/a,local,limestone,n/a
GACTBTN0003,Gomtu,Samtse,Bhutan,BTN,64,Asia,Southern Asia,26.821865,89.183282,Exact,Operating,Integrated,Wet,0.7359518,0.6,news,n/a,n/a,n/a,n/a,n/a,n/a,n/a,n/a,n/a,n/a,n/a,n/a,n/a,n/a,n/a,n/a,n/a,n/a,local,limestone,n/a
GACTBWA0001,Gaborone,South-East District,Botswana,BWA,72,Africa,Sub-Saharan Africa,-24.690323,25.889149,Exact,Operating,Grinding,n/a,0.6910373,0.4,company reports,1995,5037061355,PPC Botswana Pty Ltd,https://www.ppc.africa/bw/contact-us/general,4295888664,PPC Ltd,n/a,5299002A9K9AKAFFIS09,Public,PPC,JNB,n/a,n/a,n/a,n/a,n/a,n/a,n/a,local,unknown,n/a
GACTCAN0001,Joliette,Québec,Canada,CAN,124,Americas,Northern America,46.030177,-73.401677,Exact,Operating,Grinding,n/a,0.81828225,1.475,company reports,1951,5037319516,CRH Canada Group Inc,https://www.crhcement.com/joliettelandingpage/,4295874867,CRH PLC,n/a,549300MIDJNNTH068E74,Public,CRH,LSE,n/a,n/a,n/a,n/a,n/a,n/a,n/a,local,limestone,n/a
GACTCAN0002,Mississauga,Ontario,Canada,CAN,124,Americas,Northern America,43.493688,-79.624239,Exact,Operating,Integrated,Dry,0.8603668,2,company reports,1956,5037319516,CRH Canada Group Inc,http://www.crhcanada.com/about-us/locations,4295874867,CRH PLC,n/a,549300MIDJNNTH068E74,Public,CRH,LSE,n/a,n/a,n/a,n/a,n/a,n/a,n/a,local,limestone,n/a
GACTCAN0003,Saint-Basile,Québec,Canada,CAN,124,Americas,Northern America,46.744581,-71.813859,Exact,Operating,Integrated,Wet,0.81828225,1.571,company reports,1951,5000019748,Ciment Quebec Inc,https://cimentquebec.com/en/cement/contact-us/,5000019748,Ciment Quebec Inc,n/a,549300YUW6N7RXHA4T37,Private,n/a,n/a,n/a,n/a,n/a,n/a,n/a,n/a,n/a,local,limestone,n/a
GACTCAN0004,Embro,Ontario,Canada,CAN,124,Americas,Northern America,43.103861,-80.895863,Exact,Operating,Integrated,Dry,0.8603668,0.544,company reports,1979,5025435939,Federal White Cement Ltd,http://www.federalwhitecement.com/,5025435939,Federal White Cement Ltd,n/a,549300SKZOPRJXN2F307,Private,n/a,n/a,n/a,n/a,n/a,n/a,n/a,n/a,n/a,local,limestone,n/a
GACTCAN0005,Argenteuil,Québec,Canada,CAN,124,Americas,Northern America,45.768479,-74.613848,Exact,Operating,Integrated,Dry,0.81828225,0.3,company reports,n/a,5051398760,Lehigh Hanson Materials Ltd,https://www.lehighhanson.com/home/locations,4295868961,HeidelbergCement AG,n/a,LZ2C6E0W5W7LQMX5ZI37,Public,HEI,GER,n/a,n/a,n/a,n/a,n/a,n/a,n/a,local,limestone,n/a
GACTCAN0006,Prince Edward,Ontario,Canada,CAN,124,Americas,Northern America,44.054274,-77.121345,Exact,Operating,Integrated,Dry,0.81828225,2.2,news,1958,5051398760,Lehigh Hanson Materials Ltd,https://www.lehighhanson.com/home/locations,4295868961,HeidelbergCement AG,n/a,LZ2C6E0W5W7LQMX5ZI37,Public,HEI,GER,n/a,n/a,n/a,n/a,n/a,n/a,n/a,local,limestone,n/a
GACTCAN0007,Edmonton,Alberta,Canada,CAN,124,Americas,Northern America,53.580487,-113.600661,Exact,Operating,Integrated,Dry,0.905826,1.38,company reports,n/a,5051398760,Lehigh Hanson Materials Ltd,https://www.lehighhanson.com/home/locations,4295868961,HeidelbergCement AG,n/a,LZ2C6E0W5W7LQMX5ZI37,Public,HEI,GER,n/a,n/a,n/a,n/a,n/a,n/a,n/a,local,limestone,n/a
GACTCAN0008,Delta,British Columbia,Canada,CAN,124,Americas,Northern America,49.143998,-123.023077,Exact,Operating,Integrated,Dry,n/a,1.356,company reports,1904,5051398760,Lehigh Hanson Materials Ltd,https://www.lehighhanson.com/home/locations,4295868961,HeidelbergCement AG,n/a,LZ2C6E0W5W7LQMX5ZI37,Public,HEI,GER,n/a,n/a,n/a,n/a,n/a,n/a,n/a,n/a,n/a,n/a
GACTCAN0009,Bath,Ontario,Canada,CAN,124,Americas,Northern America,44.168779,-76.805344,Exact,Operating,Integrated,Dry,0.81828225,1.176,company reports,1973,4295860729,Lafarge Canada Inc,https://www.lafarge.ca/en/contact-us,4295890620,LafargeHolcim Ltd,n/a,529900EHPFPYHV6IQO98,Public,LHN,SWX,n/a,n/a,n/a,n/a,n/a,n/a,n/a,local,limestone,n/a
GACTCAN0010,Brookfield,Nova Scotia,Canada,CAN,124,Americas,Northern America,45.239364,-63.334263,Exact,Operating,Integrated,Wet,0.81828225,0.5,company website,1965,4295860729,Lafarge Canada Inc,http://lafargebrookfield.ca/,4295890620,LafargeHolcim Ltd,n/a,529900EHPFPYHV6IQO98,Public,LHN,SWX,n/a,n/a,n/a,n/a,n/a,n/a,n/a,local,limestone,n/a
GACTCAN0011,Division No. 15,Alberta,Canada,CAN,124,Americas,Northern America,51.060709,-115.171522,Exact,Operating,Integrated,Wet,0.9277575,2.2,company website,1906,4295860729,Lafarge Canada Inc,https://lafargeexshaw.ca/,4295890620,LafargeHolcim Ltd,n/a,529900EHPFPYHV6IQO98,Public,LHN,SWX,n/a,n/a,n/a,n/a,n/a,n/a,n/a,local,limestone,n/a
GACTCAN0012,Richmond,British Columbia,Canada,CAN,124,Americas,Northern America,49.158286,-123.005621,Exact,Operating,Integrated,Dry,n/a,1.319,company reports,n/a,4295860729,Lafarge Canada Inc,https://www.lafarge.ca/en/contact-us,4295890620,LafargeHolcim Ltd,n/a,529900EHPFPYHV6IQO98,Public,LHN,SWX,n/a,n/a,n/a,n/a,n/a,n/a,n/a,n/a,n/a,n/a
GACTCAN0013,Saint-Constant,Québec,Canada,CAN,124,Americas,Northern America,45.339711,-73.523533,Exact,Operating,Grinding,n/a,0.81828225,1.157,company reports,n/a,4295860729,Lafarge Canada Inc,https://www.lafarge.ca/en/contact-us,4295890620,LafargeHolcim Ltd,n/a,529900EHPFPYHV6IQO98,Public,LHN,SWX,n/a,n/a,n/a,n/a,n/a,n/a,n/a,local,limestone,n/a
GACTCAN0014,Hamilton,Ontario,Canada,CAN,124,Americas,Northern America,43.223614,-79.687062,Exact,Operating,Integrated,Dry,0.8603668,0.814,company reports,n/a,4295860729,Lafarge Canada Inc,https://www.lafarge.ca/en/contact-us,4295890620,LafargeHolcim Ltd,n/a,529900EHPFPYHV6IQO98,Public,LHN,SWX,n/a,n/a,n/a,n/a,n/a,n/a,n/a,local,limestone,n/a
GACTCAN0015,Port-Daniel,Québec,Canada,CAN,124,Americas,Northern America,48.18713,-64.920197,Exact,Operating,Integrated,Dry,0.81828225,1.5,news,n/a,5043318026,McInnis Cement Inc,https://mcinniscement.com/the-projects/#the-plant,5043318026,McInnis Cement Inc,n/a,549300OTGSSE8VHTAH51,Private,n/a,n/a,n/a,n/a,n/a,n/a,n/a,n/a,n/a,local,limestone,n/a
GACTCAN0016,Bowmanville,Ontario,Canada,CAN,124,Americas,Northern America,43.881616,-78.699895,Exact,Operating,Integrated,Wet,0.81828225,1.8,company reports,1968,4298366597,St Marys Cement Inc Canada,http://www.stmaryscement.com/Pages/Company/Locations/Ontario.aspx,5000075361,Votorantim SA,n/a,5493009RIHSE12DQ0J28,Private,n/a,n/a,n/a,n/a,n/a,n/a,n/a,n/a,n/a,local,limestone,n/a
GACTCAN0017,Lakeside,Ontario,Canada,CAN,124,Americas,Northern America,43.243214,-81.147797,Exact,Operating,Grinding,n/a,0.8603668,0.645,company reports,1912,4298366597,St Marys Cement Inc Canada,http://www.stmaryscement.com/Pages/Company/Locations/Ontario.aspx,5000075361,Votorantim SA,n/a,5493009RIHSE12DQ0J28,Private,n/a,n/a,n/a,n/a,n/a,n/a,n/a,n/a,n/a,local,limestone,n/a
GACTCHE0001,Wildegg,Aargau,Switzerland,CHE,756,Europe,Western Europe,47.414148,8.158997,Exact,Operating,Grinding,n/a,0.8097384,0.6,news,1890,5000845351,Jura Cement Fabriken AG,https://www.juracement.ch/de/923/Standorte.htm,4295874867,CRH PLC,n/a,549300MIDJNNTH068E74,Public,CRH,LSE,n/a,n/a,n/a,n/a,n/a,n/a,n/a,local,unknown,n/a
GACTCHE0002,Cornaux,Neuchâtel,Switzerland,CHE,756,Europe,Western Europe,47.033567,7.028609,Exact,Operating,Integrated,Dry,0.83334565,0.6,news,n/a,5000845351,Jura Cement Fabriken AG,https://www.juracement.ch/de/923/Standorte.htm,4295874867,CRH PLC,n/a,549300MIDJNNTH068E74,Public,CRH,LSE,n/a,n/a,n/a,n/a,n/a,n/a,n/a,local,unknown,n/a
GACTCHE0003,Untervaz,Graubünden,Switzerland,CHE,756,Europe,Western Europe,46.91631,9.54928,Exact,Operating,Grinding,n/a,0.8161862,4.1,news,1957,4298321166,Holcim (Schweiz) AG,https://www.holcim.ch/de/zementwerk-untervaz,4295890620,LafargeHolcim Ltd,n/a,529900EHPFPYHV6IQO98,Public,LHN,SWX,n/a,n/a,n/a,n/a,n/a,n/a,n/a,local,unknown,n/a
GACTCHE0004,Würenlingen,Aargau,Switzerland,CHE,756,Europe,Western Europe,47.521397,8.238877,Exact,Operating,Grinding,n/a,0.8097384,1.2,news,n/a,4298321166,Holcim (Schweiz) AG,https://www.holcim.ch/de/zementwerk-siggenthal,4295890620,LafargeHolcim Ltd,n/a,529900EHPFPYHV6IQO98,Public,LHN,SWX,n/a,n/a,n/a,n/a,n/a,n/a,n/a,local,unknown,n/a
GACTCHE0005,Eclépens,Vaud,Switzerland,CHE,756,Europe,Western Europe,46.655283,6.545972,Exact,Operating,Integrated,Dry,0.83334565,3.8,news,1953,4298321166,Holcim (Schweiz) AG,https://www.holcim.ch/fr/cimenterie-eclepens,4295890620,LafargeHolcim Ltd,n/a,529900EHPFPYHV6IQO98,Public,LHN,SWX,n/a,n/a,n/a,n/a,n/a,n/a,n/a,local,unknown,n/a
GACTCHE0006,Péry-La Heutte,Berne,Switzerland,CHE,756,Europe,Western Europe,47.185189,7.248911,Exact,Operating,Grinding,n/a,0.83334565,1.4,news,1891,4298433994,Ciments Vigier SA,https://www.vigier-ciment.ch/fr/contacts-et-publications/site/,4295868605,Vicat SA,n/a,9695009YI1863TOVDP79,Public,VCT,PAR,n/a,n/a,n/a,n/a,n/a,n/a,n/a,local,unknown,n/a
GACTCHL0001,Chacabuco,Región Metropolitana,Chile,CHL,152,Americas,Latin America and the Caribbean,-33.15077,-70.831814,Exact,Operating,Integrated,Dry,0.7418308,1.2,news,1949,4295863421,Cemento Polpaico SA,http://www.polpaico.cl/somos-polpaico/plantas-y-oficinas/,4295863421,Cemento Polpaico SA,n/a,n/a,Public,POLPAICO,SGO,n/a,n/a,n/a,n/a,n/a,n/a,n/a,local,unknown,n/a
GACTCHL0002,Coronel,Bío Bío,Chile,CHL,152,Americas,Latin America and the Caribbean,-36.978684,-73.174564,Exact,Operating,Integrated,Wet,0.61384696,2.5,news,n/a,4295863421,Cemento Polpaico SA,http://www.polpaico.cl/somos-polpaico/plantas-y-oficinas/,4295863421,Cemento Polpaico SA,n/a,n/a,Public,POLPAICO,SGO,n/a,n/a,n/a,n/a,n/a,n/a,n/a,hybrid,unknown,clinker
GACTCHL0003,Antofagasta,Antofagasta,Chile,CHL,152,Americas,Latin America and the Caribbean,-23.096319,-70.413517,Exact,Operating,Grinding,n/a,0.78030777,1,news,2001,4295863421,Cemento Polpaico SA,http://www.polpaico.cl/somos-polpaico/plantas-y-oficinas/,4295863421,Cemento Polpaico SA,n/a,n/a,Public,POLPAICO,SGO,n/a,n/a,n/a,n/a,n/a,n/a,n/a,hybrid,sand,clinker
GACTCHL0004,Conchalí,Región Metropolitana,Chile,CHL,152,Americas,Latin America and the Caribbean,-33.380072,-70.695526,Exact,Operating,Integrated,Wet,0.6968637,1.1,news,n/a,n/a,Cementos BSA,https://www.cementosbsa.com/unidadesNegocio.aspx,n/a,Cementos BSA,n/a,n/a,Private,n/a,n/a,n/a,n/a,n/a,n/a,n/a,n/a,n/a,local,unknown,n/a
GACTCHL0005,Antofagasta,Antofagasta,Chile,CHL,152,Americas,Latin America and the Caribbean,-23.780668,-70.318803,Exact,Operating,Integrated,Wet,0.78030777,0.5,company reports,n/a,4295863410,Cementos Bio Bio SA,https://cbb.cl/nosotros/presencia-geografica/antofagasta/#!,4295863410,Cementos Bio Bio SA,n/a,n/a,Public,CEMENTOS,SGO,n/a,n/a,n/a,n/a,n/a,n/a,n/a,hybrid,sand,clinker
GACTCHL0006,Talcahuano,Bío Bío,Chile,CHL,152,Americas,Latin America and the Caribbean,-36.744254,-73.118689,Exact,Operating,Grinding,n/a,1.0000002,0.75,company reports,1961,4295863410,Cementos Bio Bio SA,https://cbb.cl/nosotros/presencia-geografica/biobio/#!,4295863410,Cementos Bio Bio SA,n/a,n/a,Public,CEMENTOS,SGO,n/a,n/a,n/a,n/a,n/a,n/a,n/a,local,unknown,n/a
GACTCHL0007,Teno,Maule,Chile,CHL,152,Americas,Latin America and the Caribbean,-34.866335,-71.139321,Exact,Operating,Integrated,Dry,0.790602,1.7,company reports,1998,4295863410,Cementos Bio Bio SA,https://cbb.cl/nosotros/presencia-geografica/maule/#!,4295863410,Cementos Bio Bio SA,n/a,n/a,Public,CEMENTOS,SGO,n/a,n/a,n/a,n/a,n/a,n/a,n/a,local,unknown,n/a
GACTCHL0008,Barrancas,Valparaíso,Chile,CHL,152,Americas,Latin America and the Caribbean,-33.596748,-71.588465,Exact,Operating,Grinding,n/a,0.790602,0.3,company reports,2009,4295863410,Cementos Bio Bio SA,https://cbb.cl/nosotros/presencia-geografica/valparaiso/#!,4295863410,Cementos Bio Bio SA,n/a,n/a,Public,CEMENTOS,SGO,n/a,n/a,n/a,n/a,n/a,n/a,n/a,local,unknown,n/a
GACTCHL0009,La Calera,Valparaíso,Chile,CHL,152,Americas,Latin America and the Caribbean,-32.790183,-71.197668,Exact,Operating,Grinding,n/a,0.86302865,1.5,news,1908,5035440301,Melon SA,https://www.melon.cl/productos/cementos/servicios/programacion-y-entrega/,5035440301,Melon SA,n/a,n/a,Public,MELON,SGO,n/a,n/a,n/a,n/a,n/a,n/a,n/a,local,unknown,n/a
